     2.20           OBSERVATION DATA    GPS                 RINEX VERSION / TYPE
gps1x2rnx           operator            2023-07-06 23:54:17 PGM / RUN BY / DATE
GRACE C                                                     MARKER NAME
GRACE C             NASA                                    OBSERVER / AGENCY
RECNUM              RECTYPE             RECVERS             REC # / TYPE / VERS
ANTNUM              ANTTYPE                                 ANT # / TYPE
        0.0000        0.0000        0.0000                  APPROX POSITION XYZ
        0.0000        0.0000        0.0000                  ANTENNA: DELTA H/E/N
     1     1     0                                          WAVELENGTH FACT L1/2
     9    L1    L2    C1    P1    P2    LA    SA    S1    S2# / TYPES OF OBSERV
    10                                                      INTERVAL
  2023    06    21    06    00   00.000000      GPS         TIME OF FIRST OBS
SNR is mapped to signal strength [0,1,2-9]                  COMMENT
 SNR: >500 >100  >50  >10   >5   >3  >1  >0  bad  n/a       COMMENT
 sig:    9    8    7    6    5    4   3   2    1    0       COMMENT
 Loss of Lock Indicator is set for all phase observations   COMMENT
 in case a phase break/cycle slip is detected.              COMMENT
 Loss of Lock Indicator is also set at acquisition of a PRN COMMENT
 Undetected cycle slips may remain in this file.            COMMENT
                                                            END OF HEADER
 23 06 21 06 00 00.0000000  0  8 02 06 07 09 14 17 19 30
 123971759.16446  96601375.13346  23591042.22448  23591040.71146  23591041.47846
 123971765.62748       146.00048        24.00046        44.00046
 119571946.84346  93172957.33348  22753787.30148  22753787.17046  22753791.76648
 119571946.34148       225.00048        39.00046       167.00048
 109243272.76948  85124639.44348  20788301.27749  20788300.89248  20788301.81148
 109243275.26949       613.00049       270.00048       451.00048
 123598812.76746  96310769.40148  23520077.17048  23520076.42146  23520081.04248
 123598815.26048       167.00048        26.00046       116.00048
 116879875.38248  91075234.48848  22241500.25948  22241500.01348  22241500.99048
 116879875.86648       303.00048       119.00048       113.00048
 105199152.18449  81973382.87849  20018727.00549  20018726.66049  20018727.22949
 105199154.68149       699.00049      1564.00049      2169.00049
 108141372.75848  84266012.55048  20578618.28949  20578616.84048  20578616.87048
 108141382.25749       553.00049       282.00048       445.00048
 106336466.47749  82859616.78649  20235150.03749  20235149.44949  20235152.71649
 106336469.97049       862.00049       516.00049       699.00049
 23 06 21 06 00 10.0000000  0  8 02 06 07 09 14 17 19 30
 123754439.91346  96432035.78946  23549687.32348  23549686.46546  23549686.61446
 123754446.41048       148.00048        26.00046        45.00046
 119890248.24746  93420984.48748  22814357.83448  22814357.77746  22814362.51748
 119890247.75448       220.00048        37.00046       160.00048
 109337872.03948  85198353.24948  20806302.80849  20806302.47748  20806303.40348
 109337874.54149       610.00049       266.00048       445.00048
 124007205.21846  96628997.30648  23597791.45148  23597790.71646  23597795.55848
 124007207.70448       162.00048        25.00046       109.00048
 116538500.69648  90809228.45448  22176538.44448  22176538.32148  22176539.38848
 116538501.18148       311.00048       127.00048       120.00048
 105123290.43549  81914269.93549  20004290.88649  20004290.56849  20004291.11649
 105123292.93349       702.00049      1578.00049      2211.00049
 108182820.04448  84298309.23048  20586505.30049  20586503.93448  20586503.90948
 108182829.54149       550.00049       279.00048       439.00048
 106208363.69249  82759796.55049  20210772.78549  20210772.17349  20210775.43749
 106208367.18649       864.00049       521.00049       710.00049
 23 06 21 06 00 20.0000000  0  8 02 06 07 09 14 17 19 30
 123538571.75146  96263827.10646  23508608.85748  23508607.91746  23508608.03146
 123538578.23448       152.00048        26.00046        47.00046
 120210377.54746  93670435.91048  22875276.36448  22875276.53746  22875281.02148
 120210377.05448       214.00048        34.00046       154.00048
 109438700.45848  85276920.93248  20825489.82349  20825489.42848  20825490.29748
 109438702.95849       608.00049       262.00048       439.00048
 124417292.88846  96948546.11248  23675828.92448  23675827.87346  23675832.63048
 124417295.38048       157.00048        25.00046       103.00048
 116199920.60948  90545400.01148  22112108.72148  22112108.41148  22112109.39448
 116199921.08648       319.00048       132.00048       128.00048
 105051696.78349  81858482.78449  19990666.99849  19990666.66949  19990667.18949
 105051699.28149       706.00049      1595.00049      2257.00049
 108228077.37448  84333574.77648  20595117.34649  20595116.04248  20595116.02448
 108228086.87149       545.00049       275.00048       433.00048
 106087012.19249  82665237.05249  20187680.26249  20187679.65549  20187682.92049
 106087015.68649       867.00049       522.00049       716.00049
 23 06 21 06 00 30.0000000  0  8 02 06 07 09 14 17 19 30
 123324178.69646  96096767.89647  23467811.10648  23467809.49546  23467810.11947
 123324185.20448       155.00048        27.00046        51.00047
 120532288.47846  93921275.58348  22936534.09548  22936534.11646  22936538.74448
 120532287.95448       208.00048        34.00046       148.00048
 109545722.18648  85360314.57148  20845855.24949  20845854.92448  20845855.77448
 109545724.68649       603.00049       260.00048       433.00048
 124828997.37446  97269354.77047  23754173.26648  23754172.70346  23754177.27247
 124828999.87448       151.00048        23.00046        98.00047
 115864204.62148  90283803.33848  22048223.96248  22048223.80448  22048224.80748
 115864205.10548       329.00048       140.00048       135.00048
 104984390.33049  81806036.31149  19977858.87249  19977858.59249  19977859.08549
 104984392.82849       709.00049      1606.00049      2302.00049
 108277140.58148  84371805.94148  20604453.76349  20604452.32948  20604452.32348
 108277150.07849       541.00049       269.00048       429.00048
 105972452.34949  82575969.75349  20165880.14749  20165879.57849  20165882.79249
 105972455.84449       874.00049       529.00049       724.00049
 23 06 21 06 00 40.0000000  0  8 02 06 07 09 14 17 19 30
 123111284.73946  95930876.75047  23427298.55448  23427297.14046  23427297.48947
 123111291.23548       157.00048        28.00046        52.00047
 120855934.63546  94173467.45748  22998121.95348  22998122.08246  22998126.37048
 120855934.16148       203.00048        33.00046       142.00048
 109658899.49948  85448504.76048  20867392.10649  20867391.81548  20867392.59048
 109658901.99949       601.00049       259.00048       429.00048
 125242240.68146  97591362.50447  23832810.93648  23832810.01846  23832815.00847
 125242243.18348       145.00048        23.00046        90.00047
 115531422.31448  90024492.62248  21984897.47248  21984897.26048  21984898.26848
 115531422.79748       340.00048       151.00048       144.00048
 104921389.14949  81756944.58149  19965870.17249  19965869.78749  19965870.26149
 104921391.64649       710.00049      1615.00049      2343.00049
 108330004.68648  84412998.84348  20614513.42149  20614512.01048  20614511.95948
 108330014.18449       536.00049       265.00048       421.00048
 105864722.28449  82492024.34549  20145379.79049  20145379.11649  20145382.34249
 105864725.77949       883.00049       541.00049       731.00049
 23 06 21 06 00 50.0000000  0  8 02 06 07 09 14 17 19 30
 122899913.74746  95766172.33747  23387075.73248  23387074.44646  23387074.74147
 122899920.27548       162.00048        30.00046        54.00047
 121181269.93946  94426975.47748  23060031.21048  23060031.13846  23060035.66748
 121181269.43348       197.00048        31.00046       137.00048
 109778192.90748  85541460.71848  20890092.91649  20890092.54148  20890093.32148
 109778195.40649       599.00049       255.00048       426.00048
 125656945.37146  97914508.97947  23911726.66148  23911725.39646  23911730.81247
 125656947.87448       140.00048        24.00046        85.00047
 115201643.28448  89767522.10548  21922142.65748  21922142.24248  21922143.08148
 115201643.76748       353.00048       162.00048       152.00048
 104862710.38949  81711220.96049  19954703.90149  19954703.53049  19954703.97449
 104862712.88749       712.00049      1616.00049      2374.00049
 108386663.93948  84457148.99448  20625295.26949  20625293.86648  20625293.78248
 108386673.43649       531.00049       262.00048       416.00048
 105763857.91649  82413428.81749  20126185.80849  20126185.24149  20126188.41949
 105763861.41249       890.00049       552.00049       740.00049
 23 06 21 06 01 00.0000000  0  8 02 06 07 09 14 17 19 30
 122690089.70046  95602673.28147  23347147.23248  23347146.13446  23347146.37847
 122690096.20948       165.00048        29.00046        57.00047
 121508248.26846  94681763.78848  23122252.97348  23122252.75446  23122257.68948
 121508247.77448       192.00048        30.00046       130.00048
 109903561.15448  85639150.30548  20913949.63849  20913949.28048  20913950.05948
 109903563.65149       595.00049       253.00048       425.00048
 126073034.62046  98238734.28647  23990905.70048  23990904.80446  23990909.87347
 126073037.09648       134.00048        21.00046        79.00047
 114874937.23648  89512946.10348  21859972.33948  21859972.15448  21859972.92348
 114874937.71848       367.00048       173.00048       161.00048
 104808370.42749  81668878.21049  19944363.27149  19944362.91549  19944363.34949
 104808372.92449       713.00049      1615.00049      2410.00049
 108447111.82048  84504251.31548  20636798.02949  20636796.61048  20636796.54048
 108447121.31949       528.00049       260.00048       413.00048
 105669892.93349  82340209.42549  20108304.84049  20108304.25449  20108307.40849
 105669896.42749       898.00049       561.00049       753.00049
 23 06 21 06 01 10.0000000  0  8 02 06 07 09 14 17 19 30
 122481836.40446  95440398.20647  23307518.06948  23307516.77846  23307516.76047
 122481842.92948       166.00048        29.00046        58.00047
 121836823.83246  94937796.68748  23184778.75148  23184778.42846  23184783.47148
 121836823.35148       187.00048        28.00046       126.00048
 110034961.07048  85741539.89448  20938954.24349  20938953.81948  20938954.59448
 110034963.57149       591.00049       247.00048       424.00048
 126490432.07246  98563978.99847  24070334.01648  24070333.51446  24070337.95547
 126490434.57448       129.00048        21.00046        71.00047
 114551373.86448  89260818.93248  21798400.18448  21798399.96348  21798400.70948
 114551374.34848       380.00048       187.00048       165.00048
 104758384.52249  81629928.22649  19934851.18349  19934850.84649  19934851.27949
 104758387.01949       712.00049      1618.00049      2432.00049
 108511341.26048  84554300.29348  20649020.44449  20649019.03948  20649018.90848
 108511350.76049       527.00049       256.00048       406.00048
 105582858.72349  82272390.63349  20091742.72549  20091742.12749  20091745.28349
 105582862.21749       903.00049       564.00049       765.00049
 23 06 21 06 01 20.0000000  0  8 02 06 07 09 14 17 19 30
 122275177.59446  95279365.53447  23268192.01648  23268190.65246  23268190.88447
 122275184.10148       171.00048        29.00046        61.00047
 122166950.87546  95195038.48848  23247599.96648  23247600.09146  23247604.52248
 122166950.37648       181.00048        29.00046       119.00048
 110172347.84248  85848594.55748  20965097.98949  20965097.64748  20965098.40848
 110172350.34349       585.00049       244.00048       422.00048
 126909062.01746  98890184.05447  24149996.97348  24149996.46146  24150000.90047
 126909064.51948       122.00048        21.00046        67.00047
 114231022.76448  89011194.81548  21737439.27048  21737439.09348  21737439.83848
 114231023.24848       394.00048       203.00048       175.00048
 104712767.01949  81594382.18849  19926170.40149  19926170.08649  19926170.48249
 104712769.51549       713.00049      1617.00049      2451.00049
 108579344.22348  84607289.67148  20661960.95849  20661959.49548  20661959.36748
 108579353.71649       524.00049       251.00048       399.00048
 105502784.24649  82209995.00349  20076505.06649  20076504.43349  20076507.54849
 105502787.74249       906.00049       569.00049       778.00049
 23 06 21 06 01 30.0000000  0  8 02 06 07 09 14 17 19 30
 122070136.98846  95119593.79847  23229174.02848  23229172.35846  23229172.62247
 122070143.48148       174.00048        28.00046        61.00047
 122498583.93246  95453453.80848  23310707.57948  23310707.87246  23310712.26148
 122498583.42648       177.00048        28.00046       114.00048
 110315674.98848  85960278.08448  20992372.23249  20992371.89348  20992372.62648
 110315677.48949       580.00049       240.00048       422.00048
 127328849.36646  99217290.97047  24229879.69348  24229879.25046  24229884.00647
 127328851.87748       119.00048        21.00046        60.00047
 113913953.62448  88764128.06748  21677102.93548  21677102.72948  21677103.48548
 113913954.10748       406.00048       214.00048       184.00048
 104671531.30249  81562250.52649  19918323.44749  19918323.13149  19918323.53449
 104671533.80049       712.00049      1615.00049      2467.00049
 108651111.97448  84663212.65448  20675617.89049  20675616.43648  20675616.32348
 108651121.47049       519.00049       248.00048       399.00048
 105429696.19049  82153043.33449  20062596.79749  20062596.19349  20062599.31749
 105429699.68549       908.00049       570.00049       791.00049
 23 06 21 06 01 40.0000000  0  8 02 06 07 09 14 17 19 30
 121866738.26646  94961101.46347  23190468.24148  23190467.23046  23190466.92947
 121866744.76348       178.00048        31.00046        64.00047
 122831677.64246  95713007.30448  23374093.42848  23374093.04846  23374097.99748
 122831677.12848       171.00048        27.00046       108.00048
 110464894.38248  86076552.96548  21020767.65349  21020767.34148  21020768.12348
 110464896.87949       574.00049       231.00048       419.00048
 127749719.60146  99545241.66947  24309968.53348  24309967.99846  24309973.01847
 127749722.10948       112.00048        21.00046        57.00047
 113600235.93748  88519672.83348  21617404.33448  21617404.09648  21617404.91648
 113600236.42148       416.00048       224.00048       192.00048
 104634689.76049  81533542.88749  19911312.79049  19911312.38049  19911312.76049
 104634692.25849       712.00049      1612.00049      2474.00049
 108726634.92048  84722061.74648  20689989.33549  20689987.98748  20689987.79748
 108726644.41849       516.00049       244.00048       393.00048
 105363618.77749  82101554.49649  20050022.63049  20050022.04049  20050025.13849
 105363622.27149       915.00049       575.00049       796.00049
 23 06 21 06 01 50.0000000  0  8 02 06 07 09 14 17 19 30
 121665005.00746  94803906.84847  23152079.81248  23152078.40746  23152078.22547
 121665011.48648       180.00048        32.00046        64.00047
 123166186.83346  95973663.79048  23437748.31248  23437748.02046  23437752.98748
 123166186.33248       165.00048        25.00046       103.00048
 110619956.15948  86197380.34148  21050274.97449  21050274.58648  21050275.33848
 110619958.65849       566.00049       230.00048       414.00048
 128171598.86646  99873978.57847  24390249.81948  24390248.67446  24390254.14047
 128171601.33348       108.00048        22.00046        51.00047
 113289939.17948  88277883.24448  21558356.73348  21558356.52748  21558357.32048
 113289939.66348       424.00048       231.00048       200.00048
 104602253.83349  81508268.18749  19905140.29649  19905140.00149  19905140.36849
 104602256.33049       712.00049      1613.00049      2485.00049
 108805902.87948  84783829.02348  20705073.42749  20705072.09948  20705071.99248
 108805912.37649       513.00049       241.00048       388.00048
 105304573.83749  82055545.49949  20038786.73249  20038786.09649  20038789.19549
 105304577.33149       919.00049       587.00049       798.00049
 23 06 21 06 02 00.0000000  0  8 02 06 07 09 14 17 19 30
 121464960.78146  94648028.36347  23114012.45348  23114011.35046  23114011.07747
 121464967.26748       185.00048        32.00046        68.00047
 123502066.52546  96235388.17147  23501664.29148  23501663.89946  23501668.69847
 123502066.03248       160.00048        26.00046        96.00047
 110780809.05148  86322720.26048  21080884.25349  21080883.84848  21080884.64648
 110780811.55049       561.00049       223.00048       408.00048
 128594413.74846 100203444.57046  24470708.21748  24470708.02146  24470713.38346
 128594416.25148       103.00048        20.00046        48.00046
 112983132.71548  88038813.35748  21499973.37548  21499973.12148  21499973.91848
 112983133.19748       431.00048       239.00048       210.00048
 104574234.30049  81486434.83049  19899808.36649  19899808.01349  19899808.36849
 104574236.79849       711.00049      1607.00049      2499.00049
 108888904.94848  84848505.99348  20720868.28549  20720866.82548  20720866.65748
 108888914.44649       508.00049       238.00048       385.00048
 105252580.80749  82015031.49049  20028892.69049  20028892.13649  20028895.20549
 105252584.30249       923.00049       586.00049       796.00049
 23 06 21 06 02 10.0000000  0  8 02 06 07 09 14 17 19 30
 121266629.00946  94493484.26047  23076270.95748  23076269.65646  23076269.55747
 121266635.51148       187.00048        33.00046        70.00047
 123839271.91646  96498145.53047  23565832.26748  23565832.18946  23565837.00247
 123839271.41648       155.00048        26.00046        91.00047
 110947400.18348  86452531.51748  21112585.45449  21112585.11048  21112585.89148
 110947402.68349       555.00049       220.00048       398.00048
 129018091.61446 100533582.96046  24551332.17347  24551331.95846  24551336.69946
 129018094.11347        97.00047        20.00046        44.00046
 112679885.65548  87802517.03348  21442267.33848  21442267.10648  21442267.76148
 112679886.14048       436.00048       249.00048       221.00048
 104550640.18849  81468049.84949  19895318.49349  19895318.16649  19895318.52549
 104550642.68649       711.00049      1609.00049      2500.00049
 108975629.46248  84916083.56048  20737371.36749  20737369.92048  20737369.76848
 108975638.95749       502.00049       232.00048       379.00048
 105207656.53449  81980025.60249  20020343.91049  20020343.31049  20020346.32349
 105207660.03049       925.00049       592.00049       791.00049
 23 06 21 06 02 20.0000000  0  8 02 06 07 09 14 17 19 30
 121070033.07246  94340292.74547  23038859.86948  23038858.52946  23038858.51947
 121070039.57448       192.00048        35.00046        73.00047
 124177758.46746  96761901.18347  23630244.26948  23630244.16546  23630248.85047
 124177757.95448       148.00048        24.00046        86.00047
 111119675.16748  86586771.76048  21145368.27249  21145367.92548  21145368.70348
 111119677.66649       549.00049       211.00048       392.00048
 129442560.41546 100864337.64746  24632105.97147  24632105.72246  24632110.20146
 129442562.91047        93.00047        20.00046        42.00046
 112380267.03548  87569048.05648  21385251.75848  21385251.51848  21385252.22648
 112380267.51748       443.00048       254.00048       232.00048
 104531479.82549  81453119.73749  19891672.42349  19891672.04149  19891672.38249
 104531482.32249       712.00049      1608.00049      2500.00049
 109066064.00148  84986552.05048  20754580.45748  20754579.03748  20754578.87948
 109066073.49848       500.00048       228.00048       371.00048
 105169815.48349  81950539.10849  20013143.01549  20013142.37049  20013145.39649
 105169818.98049       929.00049       594.00049       786.00049
 23 06 21 06 02 30.0000000  0  9 01 02 06 07 09 14 17 19 30
 118429504.59857  92282745.40358  22536385.46348  22536385.47747  22536388.99448
 118429504.09358       279.00048        59.00047       153.00048
 120875196.27746  94188471.98547  23001783.70048  23001782.35846  23001782.15447
 120875202.78248       196.00048        34.00046        76.00047
 124517481.79646  97026620.54847  23694891.45748  23694891.72346  23694896.16747
 124517481.28348       143.00048        22.00046        82.00047
 111297578.20148  86725397.49448  21179222.13749  21179221.71148  21179222.49148
 111297580.69949       542.00049       210.00048       384.00048
 129867748.67646 101195652.93746  24713017.13447  24713016.05546  24713021.60046
 129867751.18347        89.00047        20.00046        39.00046
 112084345.62248  87338460.02248  21328939.68348  21328939.41348  21328940.11648
 112084346.10848       449.00048       258.00048       243.00048
 104516760.71249  81441650.34049  19888871.36849  19888871.05349  19888871.39349
 104516763.21049       711.00049      1609.00049      2507.00049
 109160195.51448  85059901.30348  20772493.14248  20772491.63748  20772491.46948
 109160205.01048       496.00048       227.00048       366.00048
 105139069.59849  81926581.31349  20007292.16149  20007291.61049  20007294.61549
 105139073.09449       932.00049       597.00049       791.00049
 23 06 21 06 02 40.0000000  0  9 01 02 06 07 09 14 17 19 30
 118310822.67447  92190266.07048  22513801.06148  22513800.91147  22513804.63948
 118310822.17748       283.00048        60.00047       156.00048
 120682141.85746  94038040.08647  22965046.47048  22965045.47446  22965045.03047
 120682148.35848       198.00048        38.00046        78.00047
 124858397.74246  97292269.22047  23759765.72348  23759765.81646  23759770.41247
 124858397.23548       137.00048        23.00046        75.00047
 111481052.08248  86868364.15048  21214136.07849  21214135.70048  21214136.41148
 111481054.58049       537.00049       202.00048       371.00048
 130293585.61446 101527473.63646  24794051.54147  24794050.19046  24794055.61146
 130293588.11447        85.00047        18.00046        34.00046
 111792189.94648  87110806.32448  21273344.29448  21273344.00048  21273344.74048
 111792190.43148       457.00048       265.00048       253.00048
 104506489.32349  81433646.70049  19886916.80449  19886916.43149  19886916.75449
 104506491.82049       711.00049      1607.00049      2490.00049
 109258010.17948  85136120.54248  20791106.53848  20791105.13248  20791104.93148
 109258019.67548       493.00048       223.00048       356.00048
 105115428.26649  81908159.53349  20002793.38849  20002792.77649  20002795.78549
 105115431.76049       934.00049       602.00049       794.00049
 23 06 21 06 02 50.0000000  0 10 01 02 06 07 09 13 14 17 19 30
 118194622.60447  92099720.65148  22491688.89448  22491688.65047  22491692.36448
 118194622.10948       286.00048        61.00047       161.00048
 120490892.91446  93889015.06247  22928653.13448  22928651.69046  22928651.43147
 120490899.42648       202.00048        37.00046        80.00047
 125200462.43146  97558813.01647  23824858.63948  23824858.42246  23824863.38647
 125200461.93448       131.00048        20.00046        71.00047
 111670038.20048  87015626.06048  21250098.95249  21250098.60048  21250099.26648
 111670040.70149       531.00049       199.00048       366.00048
 130720001.09846 101859745.12946  24875195.96147  24875194.97746  24875200.22746
 130720003.56547        80.00047        20.00046        31.00046
 119259891.93856  92929789.54157  22694403.98348  22694402.95246  22694403.94347
 119259897.42458       235.00048        35.00046        64.00047
 111503868.28148  86886140.16948  21218478.41448  21218478.18748  21218478.87448
 111503868.76948       463.00048       276.00048       267.00048
 104500671.01549  81429112.98849  19885809.59549  19885809.21449  19885809.54049
 104500673.51149       710.00049      1602.00049      2472.00049
 109359493.43248  85215198.42248  20810418.10048  20810416.73748  20810416.60148
 109359502.93148       490.00048       221.00048       347.00048
 105098898.39949  81895279.15349  19999647.83249  19999647.21449  19999650.23449
 105098901.89349       936.00049       600.00049       798.00049
 23 06 21 06 03 00.0000000  0 10 01 02 06 07 09 13 14 17 19 30
 118080919.52747  92011120.92548  22470051.82948  22470051.72847  22470055.22948
 118080919.02248       290.00048        63.00047       164.00048
 120301472.41046  93741414.76647  22892607.34548  22892606.44646  22892605.93347
 120301478.90648       206.00048        38.00046        80.00047
 125543632.19146  97826217.89647  23890161.70248  23890161.41546  23890166.65047
 125543631.67848       125.00048        21.00046        65.00047
 111864476.74248  87167136.60148  21287099.31549  21287099.01748  21287099.69248
 111864479.23949       523.00049       195.00048       358.00048
 131146925.49046 102192413.20246  24956436.62547  24956436.08446  24956441.79046
 131146927.99947        76.00047        19.00046        28.00046
 119061720.01346  92775369.96147  22656693.01048  22656692.01046  22656693.06847
 119061725.51348       240.00048        37.00046        66.00047
 111219448.58048  86664514.49748  21164355.07348  21164354.86548  21164355.48748
 111219449.06648       472.00048       290.00048       274.00048
 104499310.20049  81428052.64949  19885550.55649  19885550.24849  19885550.54349
 104499312.69749       709.00049      1598.00049      2458.00049
 109464630.06048  85297123.08948  20830425.01448  20830423.56948  20830423.34948
 109464639.55848       488.00048       217.00048       340.00048
 105089484.35849  81887943.56749  19997856.35749  19997855.77449  19997858.77749
 105089487.85349       935.00049       598.00049       802.00049
 23 06 21 06 03 10.0000000  0 10 01 02 06 07 09 13 14 17 19 30
 117969728.25047  91924478.45448  22448892.73148  22448892.48647  22448896.24048
 117969727.75648       292.00048        64.00047       168.00048
 120113903.18546  93595257.00947  22856914.16548  22856913.07246  22856912.52147
 120113909.66848       211.00048        39.00046        87.00047
 125887863.43246  98094449.90347  23955666.79148  23955665.72046  23955671.57647
 125887862.93848       120.00048        22.00046        60.00047
 112064306.61048  87322848.17448  21325125.78049  21325125.37148  21325126.09848
 112064309.10949       516.00049       188.00048       347.00048
 131574289.96546 102525424.12546  25037762.24247  25037761.00946  25037766.85446
 131574292.46047        72.00047        21.00046        26.00046
 118867713.64746  92624196.25647  22619774.93548  22619773.80946  22619774.74047
 118867719.14148       242.00048        38.00046        69.00047
 110938998.43748  86445981.98548  21110987.04948  21110986.89848  21110987.54948
 110938998.92348       482.00048       302.00048       285.00048
 104502410.24649  81430468.30649  19886140.52349  19886140.13249  19886140.42349
 104502412.74449       708.00049      1587.00049      2433.00049
 109573404.12648  85381882.11648  20851124.14048  20851122.61848  20851122.36348
 109573413.62248       484.00048       217.00048       332.00048
 105087187.96149  81886154.19549  19997419.32949  19997418.75149  19997421.75849
 105087191.45649       931.00049       593.00049       803.00049
 23 06 21 06 03 20.0000000  0 10 01 02 06 07 09 13 14 17 19 30
 117861063.32647  91839804.56048  22428214.44348  22428214.18147  22428217.89248
 117861062.83548       294.00048        65.00047       174.00048
 119928208.08646  93450559.64147  22821577.51648  22821576.42246  22821575.68547
 119928214.57848       215.00048        41.00046        91.00047
 126233113.00446  98363475.37447  24021365.67248  24021364.72446  24021370.56447
 126233112.48648       115.00048        20.00046        56.00047
 112269465.48148  87482712.21348  21364166.06649  21364165.72248  21364166.56148
 112269467.97749       508.00049       184.00048       342.00048
 132002026.21346 102858724.70346  25119157.77247  25119156.03046  25119162.44946
 132002028.69947        68.00047        19.00046        26.00046
 118677925.45046  92476309.44047  22583659.33548  22583658.35846  22583659.09047
 118677930.95348       246.00048        40.00046        70.00047
 110662585.11648  86230595.05348  21058387.36048  21058387.13348  21058387.79648
 110662585.60748       493.00048       313.00048       292.00048
 104509973.44649  81436361.74249  19887579.69749  19887579.33449  19887579.60649
 104509975.94449       705.00049      1577.00049      2419.00049
 109685799.12548  85469462.65748  20872512.05148  20872510.60648  20872510.38248
 109685808.62048       483.00048       214.00048       322.00048
 105092008.50849  81889910.49649  19998336.67949  19998336.04549  19998339.05149
 105092012.00249       927.00049       587.00049       798.00049
 23 06 21 06 03 30.0000000  0 10 01 02 06 07 09 13 14 17 19 30
 117754939.02747  91757110.36848  22408019.64248  22408019.23047  22408023.01448
 117754938.52348       296.00048        65.00047       178.00048
 119744409.80946  93307340.32047  22786601.70848  22786600.57246  22786600.06547
 119744416.30748       219.00048        44.00046        93.00047
 126579337.85946  98633260.83647  24087250.32048  24087249.45246  24087255.28847
 126579337.35748       109.00048        20.00046        52.00047
 112479889.76048  87646679.17048  21404208.56349  21404208.15948  21404208.94748
 112479892.26049       501.00049       178.00048       334.00048
 132430066.64746 103192262.29746  25200611.93947  25200609.20346  25200616.13446
 132430069.13647        65.00047        19.00046        24.00046
 118492407.31746  92331749.92747  22548356.18648  22548355.58446  22548356.01247
 118492412.81048       249.00048        41.00046        73.00047
 110390275.45748  86018405.77048  21006568.53149  21006568.31848  21006568.88548
 110390275.94349       502.00049       327.00048       300.00048
 104522001.12849  81445733.98649  19889868.42049  19889868.09549  19889868.36949
 104522003.62549       701.00049      1559.00049      2415.00049
 109801797.77448  85559851.22748  20894585.83748  20894584.39148  20894584.19848
 109801807.26848       480.00048       211.00048       316.00048
 105103942.75849  81899209.94249  20000607.64749  20000607.03049  20000610.00649
 105103946.25249       923.00049       581.00049       793.00049
 23 06 21 06 03 40.0000000  0 10 01 02 06 07 09 13 14 17 19 30
 117651369.15647  91676406.64548  22388310.71948  22388310.60047  22388314.26948
 117651368.65248       297.00048        66.00047       180.00048
 119562530.87846  93165616.58247  22751991.35148  22751989.70346  22751989.45147
 119562537.38348       223.00048        46.00046        97.00047
 126926495.25846  98903772.94546  24153311.74548  24153311.52746  24153317.00146
 126926494.77248       104.00048        21.00046        47.00046
 112695514.86448  87814698.71248  21445240.69148  21445240.31648  21445241.04648
 112695517.36148       494.00048       171.00048       324.00048
 132858344.24346 103525984.68146  25282110.55547  25282108.11946  25282115.10946
 132858346.75647        60.00047        19.00046        22.00046
 118311210.11646  92190557.35947  22513875.43648  22513874.80646  22513875.51747
 118311215.59748       253.00048        41.00046        75.00047
 110122135.86148  85809465.89348  20955543.16749  20955542.99048  20955543.54248
 110122136.35049       512.00049       339.00048       304.00048
 104538493.54049  81458585.24649  19893006.76649  19893006.47149  19893006.75149
 104538496.03849       697.00049      1536.00049      2414.00049
 109921382.25448  85653033.95448  20917342.14048  20917340.61348  20917340.32048
 109921391.75248       477.00048       209.00048       308.00048
 105122984.97449  81914048.06549  20004231.17049  20004230.61549  20004233.59549
 105122988.46849       922.00049       581.00049       786.00049
 23 06 21 06 03 50.0000000  0 10 01 02 06 07 09 13 14 17 19 30
 117550367.30347  91597703.98648  22369090.84448  22369090.47947  22369094.22548
 117550366.80848       301.00048        70.00047       182.00048
 119382593.70346  93025405.87647  22717750.06848  22717749.13646  22717748.49647
 119382600.17648       226.00048        41.00046        99.00047
 127274542.71646  99174978.55646  24219544.13447  24219542.91946  24219548.54146
 127274542.20747       100.00047        20.00046        43.00046
 112916275.02548  87986719.61348  21487249.88548  21487249.51348  21487250.33648
 112916277.52748       486.00048       166.00048       313.00048
 133286792.71746 103859840.14446  25363641.32547  25363639.00846  25363646.78346
 133286795.19447        57.00047        18.00046        22.00046
 118134383.85646  92052770.74147  22480226.51348  22480225.67946  22480226.46947
 118134389.34748       257.00048        44.00046        78.00047
 109858232.22248  85603826.75448  20905323.99949  20905323.77148  20905324.32048
 109858232.70949       518.00049       345.00048       313.00048
 104559449.89349  81474914.90249  19896994.66549  19896994.30949  19896994.56949
 104559452.38949       692.00049      1516.00049      2417.00049
 110044534.00248  85748996.36248  20940776.94948  20940775.63248  20940775.30448
 110044543.49948       476.00048       207.00048       303.00048
 105149126.78149  81934418.33449  20009205.82749  20009205.20149  20009208.17749
 105149130.27549       923.00049       583.00049       779.00049
 23 06 21 06 04 00.0000000  0  9 01 02 06 07 13 14 17 19 30
 117451946.72347  91521012.70748  22350361.76948  22350361.74847  22350365.32348
 117451946.23448       303.00048        67.00047       186.00048
 119204620.51546  92886725.58148  22683883.00848  22683881.71746  22683881.29448
 119204627.02348       231.00048        46.00046       103.00048
 127623437.95946  99446844.79746  24285936.10447  24285935.49546  24285941.53546
 127623437.44347        94.00047        20.00046        41.00046
 113142103.60748  88162689.93248  21530223.64148  21530223.34648  21530224.08948
 113142106.10948       476.00048       160.00048       303.00048
 117961977.64646  91918428.32147  22447418.80448  22447417.81146  22447418.64047
 117961983.14648       261.00048        43.00046        80.00047
 109598629.99848  85401539.36848  20855923.27449  20855923.05448  20855923.54448
 109598630.48649       524.00049       354.00048       321.00048
 104584868.44349  81494721.59449  19901831.58949  19901831.26549  19901831.53949
 104584870.94049       689.00049      1492.00049      2425.00049
 110171234.01948  85847723.66048  20964887.27648  20964885.78948  20964885.51048
 110171243.51648       474.00048       203.00048       292.00048
 105182357.45049  81960312.39149  20015529.38749  20015528.78949  20015531.73449
 105182360.94549       927.00049       581.00049       774.00049
 23 06 21 06 04 10.0000000  0  9 01 02 06 07 13 14 17 19 30
 117356120.25447  91446342.79048  22332126.72548  22332126.46947  22332130.05648
 117356119.75748       306.00048        71.00047       187.00048
 119028633.48946  92749592.90548  22650393.65648  22650392.56846  22650391.86848
 119028639.99048       234.00048        49.00046       106.00048
 127973138.91746  99719338.86446  24352482.51647  24352480.75346  24352487.35746
 127973138.40847        91.00047        22.00046        37.00046
 113372932.87248  88342556.87748  21574148.92548  21574148.67448  21574149.41648
 113372935.36748       467.00048       154.00048       292.00048
 117794039.62246  91787567.58147  22415461.16948  22415460.42146  22415461.07747
 117794045.11148       264.00048        46.00046        81.00047
 109343393.97648  85202654.21448  20807353.43949  20807353.18248  20807353.68148
 109343394.46749       530.00049       360.00048       331.00048
 104614746.34249  81518003.10449  19907517.11449  19907516.80449  19907517.08449
 104614748.84049       684.00049      1476.00049      2428.00049
 110301462.28148  85949200.24548  20989668.84848  20989667.37248  20989667.06048
 110301471.78048       471.00048       202.00048       290.00048
 105222663.57449  81991719.78849  20023199.39049  20023198.78649  20023201.69449
 105222667.07049       924.00049       581.00049       771.00049
 23 06 21 06 04 20.0000000  0  9 01 02 06 07 13 14 17 19 30
 117262900.45647  91373704.05248  22314387.48848  22314387.38747  22314390.90048
 117262899.95848       309.00048        70.00047       187.00048
 118854654.69346  92614025.09848  22617286.65348  22617285.44146  22617284.85248
 118854661.19648       239.00048        48.00046       107.00048
 128323603.88446  99992428.27346  24419173.35747  24419172.90046  24419178.73146
 128323603.39047        86.00047        19.00046        36.00046
 113608694.14548  88526266.95348  21619013.01548  21619012.53448  21619013.29048
 113608696.64548       460.00048       149.00048       281.00048
 117630616.85946  91660225.22047  22384362.72048  22384362.09346  22384362.59847
 117630622.34848       269.00048        44.00046        83.00047
 109092588.48748  85007221.41848  20759626.69749  20759626.44148  20759627.00748
 109092588.97949       536.00049       368.00048       345.00048
 104649079.72849  81544756.41149  19914050.55749  19914050.23249  19914050.49649
 104649082.22549       680.00049      1461.00049      2423.00049
 110435198.45348  86053410.26048  21015118.08648  21015116.53948  21015116.17948
 110435207.94748       468.00048       201.00048       282.00048
 105270029.40049  82028628.24549  20032212.75449  20032212.16649  20032215.09949
 105270032.89549       921.00049       576.00049       769.00049
 23 06 21 06 04 30.0000000  0  9 01 02 06 07 13 14 17 19 30
 117172299.50247  91303105.96548  22297146.66548  22297146.37647  22297150.02948
 117172299.00848       313.00048        71.00047       189.00048
 118682705.90146  92480039.11048  22584565.88448  22584564.44246  22584563.84448
 118682712.39748       242.00048        50.00046       111.00048
 128674791.35846 100266080.62246  24486002.43647  24486001.63346  24486007.56446
 128674790.85347        83.00047        20.00046        32.00046
 113849317.89148  88713765.94448  21664802.17748  21664801.77248  21664802.50348
 113849320.39248       451.00048       143.00048       269.00048
 117471755.43146  91536437.16847  22354132.50648  22354131.45446  22354132.14247
 117471760.93548       274.00048        46.00046        84.00047
 108846277.17248  84815290.57648  20712755.19049  20712754.92848  20712755.44648
 108846277.66549       542.00049       377.00048       360.00048
 104687863.78749  81574977.77849  19921430.89349  19921430.56249  19921430.85549
 104687866.28549       678.00049      1450.00049      2403.00049
 110572421.50048  86160337.30748  21041230.65548  21041229.25448  21041228.86148
 110572430.99748       466.00048       197.00048       279.00048
 105324436.62849  82071023.50949  20042566.09049  20042565.47849  20042568.42649
 105324440.12149       913.00049       567.00049       771.00049
 23 06 21 06 04 40.0000000  0  9 01 02 06 07 13 14 17 19 30
 117084329.27147  91234557.78648  22280406.40548  22280406.20947  22280409.69948
 117084328.77648       316.00048        71.00047       190.00048
 118512808.85547  92347651.89048  22552235.50648  22552234.07647  22552233.52548
 118512815.36248       247.00048        53.00047       114.00048
 129026660.07546 100540263.82446  24552961.37247  24552959.92046  24552966.35146
 129026659.58647        79.00047        19.00046        31.00046
 114094733.79948  88904999.09048  21711503.25948  21711502.89848  21711503.66348
 114094736.29848       443.00048       137.00048       261.00048
 117317500.36546  91416238.45047  22324778.70548  22324777.65246  22324778.44247
 117317505.84348       277.00048        47.00046        86.00047
 108604523.03748  84626910.78448  20666750.83549  20666750.62148  20666751.11948
 108604523.53049       549.00049       389.00048       377.00048
 104731092.59549  81608662.58649  19929657.07649  19929656.72249  19929656.99149
 104731095.09249       676.00049      1441.00049      2373.00049
 110713109.86048  86269964.60148  21068002.80548  21068001.37848  21068000.95648
 110713119.35648       462.00048       194.00048       276.00048
 105385864.52849  82118889.43149  20054255.40849  20054254.81249  20054257.74849
 105385868.02349       905.00049       557.00049       773.00049
 23 06 21 06 04 50.0000000  0  9 01 02 06 07 13 14 17 19 30
 116999001.23447  91168068.45648  22264168.98048  22264168.67447  22264172.38848
 116999000.72848       319.00048        72.00047       189.00048
 118344985.19747  92216880.29648  22520299.54648  22520298.34547  22520297.62848
 118344991.69848       251.00048        54.00047       117.00048
 129379169.09846 100814945.90246  24620041.78447  24620039.51146  24620046.73646
 129379168.57547        75.00047        19.00046        27.00046
 114344870.63448  89099910.88248  21759102.73648  21759102.38548  21759103.09448
 114344873.13048       434.00048       130.00048       254.00048
 117167895.49946  91299663.29147  22296309.68148  22296308.85846  22296309.42247
 117167900.98748       281.00048        50.00046        85.00047
 108367388.33548  84442130.54748  20621625.67049  20621625.36648  20621625.86848
 108367388.82649       557.00049       395.00048       395.00048
 104778759.30149  81645805.49949  19938727.67149  19938727.35949  19938727.63549
 104778761.79849       674.00049      1433.00049      2323.00049
 110857241.32248  86382274.84048  21095430.11948  21095428.69748  21095428.30548
 110857250.82048       459.00048       193.00048       271.00048
 105454289.93649  82172207.95849  20067276.27049  20067275.71149  20067278.63349
 105454293.43149       900.00049       547.00049       773.00049
 23 06 21 06 05 00.0000000  0  9 01 02 06 07 13 14 17 19 30
 116916326.53847  91103646.68448  22248436.59348  22248436.24747  22248439.80048
 116916326.04348       322.00048        75.00047       193.00048
 118179256.27347  92087740.94848  22488762.15848  22488761.12947  22488760.48848
 118179262.76948       256.00048        56.00047       123.00048
 129732277.64846 101090095.19846  24687236.19347  24687234.27946  24687241.28746
 129732277.16947        72.00047        18.00046        28.00046
 114599656.52748  89298445.32048  21807586.91648  21807586.56148  21807587.24248
 114599659.02648       425.00048       128.00048       245.00048
 117022983.68946  91186745.05147  22268733.77948  22268733.04646  22268733.66047
 117022989.17748       284.00048        50.00046        86.00047
 108134934.66948  84260997.87148  20577391.09249  20577390.86948  20577391.38048
 108134935.16349       564.00049       405.00048       415.00048
 104830856.02549  81686400.37449  19948641.40549  19948641.01749  19948641.28149
 104830858.52249       672.00049      1422.00049      2276.00049
 111004793.09748  86497250.24748  21123508.32348  21123506.85848  21123506.48948
 111004802.59248       455.00048       191.00048       269.00048
 105529687.27549  82230959.15149  20081623.88749  20081623.32449  20081626.27049
 105529690.77149       895.00049       542.00049       773.00049
 23 06 21 06 05 10.0000000  0  9 01 02 06 07 13 14 17 19 30
 116836315.97847  91041300.85848  22233211.01548  22233210.67847  22233214.17848
 116836315.48348       322.00048        78.00047       192.00048
 118015643.27747  91960250.38348  22457627.57548  22457626.57847  22457625.77948
 118015649.77948       261.00048        57.00047       126.00048
 130085945.40646 101365680.18846  24754537.33247  24754535.38546  24754542.36646
 130085944.90747        68.00047        19.00046        24.00046
 114859018.77448  89500545.74348  21856941.98948  21856941.57948  21856942.32248
 114859021.27348       416.00048       123.00048       238.00048
 116882806.58946  91077516.20347  22242058.91748  22242058.24146  22242058.73547
 116882812.08948       288.00048        49.00046        87.00047
 107907222.81748  84083560.11248  20534058.87349  20534058.70148  20534059.23148
 107907223.31049       570.00049       415.00048       430.00048
 104887373.68349  81730440.13449  19959396.27749  19959395.96449  19959396.21449
 104887376.18049       670.00049      1413.00049      2215.00049
 111155741.86448  86614872.66548  21152232.91848  21152231.37948  21152231.05548
 111155751.35848       448.00048       184.00048       264.00048
 105612028.62549  82295121.26149  20097292.91749  20097292.35249  20097295.28349
 105612032.11949       894.00049       538.00049       771.00049
 23 06 21 06 05 20.0000000  0  9 01 02 06 07 13 14 17 19 30
 116758979.94347  90981039.07548  22218494.20448  22218494.06747  22218497.62448
 116758979.43948       326.00048        77.00047       195.00048
 117854167.25847  91834424.98648  22426899.79148  22426898.45747  22426897.89248
 117854173.74448       265.00048        57.00047       129.00048
 130440132.06246 101641669.50446  24821936.56447  24821934.70046  24821941.91446
 130440131.59647        67.00047        19.00046        25.00046
 115122884.10448  89706155.06848  21907153.77848  21907153.46548  21907154.21948
 115122886.60648       407.00048       116.00048       233.00048
 116747404.69246  90972008.28047  22216292.92548  22216292.20246  22216292.55547
 116747410.18048       291.00048        50.00046        88.00047
 107684312.74748  83909864.00448  20491640.48849  20491640.27748  20491640.82748
 107684313.24049       574.00049       419.00048       444.00048
 104948302.49649  81777917.17249  19970990.64049  19970990.31449  19970990.51449
 104948304.99349       667.00049      1403.00049      2157.00049
 111310063.76248  86735123.50548  21181599.32848  21181597.91548  21181597.51248
 111310073.25948       443.00048       179.00048       263.00048
 105701283.67549  82364670.67549  20114277.63049  20114277.01949  20114279.91249
 105701287.16849       889.00049       535.00049       767.00049
 23 06 21 06 05 30.0000000  0  9 01 02 06 07 13 14 17 19 30
 116684328.43847  90922869.13748  22204288.60848  22204288.52447  22204291.83748
 116684327.93848       326.00048        77.00047       199.00048
 117694849.05647  91710281.04248  22396582.42748  22396581.53047  22396580.51448
 117694855.55448       272.00048        60.00047       132.00048
 130794797.82746 101918032.12846  24889427.74147  24889425.56446  24889433.17646
 130794797.35047        62.00047        18.00046        23.00046
 115391178.56948  89915215.66948  21958208.59548  21958208.18448  21958208.99448
 115391181.07248       398.00048       111.00048       225.00048
 116616817.20547  90870251.85147  22191442.81848  22191442.05347  22191442.59647
 116616822.70148       295.00048        54.00047        87.00047
 107466263.56548  83739955.59948  20450147.02349  20450146.85848  20450147.39148
 107466264.06049       579.00049       426.00048       460.00048
 105013631.59949  81828822.99949  19983422.33349  19983422.00049  19983422.19449
 105013634.09649       665.00049      1392.00049      2102.00049
 111467734.42548  86857983.77448  21211603.02848  21211601.58948  21211601.22948
 111467743.92048       437.00048       175.00048       261.00048
 105797419.79149  82439581.96049  20132571.70349  20132571.09849  20132573.99549
 105797423.28549       885.00049       527.00049       759.00049
 23 06 21 06 05 40.0000000  0  9 01 02 06 07 13 14 17 19 30
 116612371.15047  90866798.59348  22190595.45748  22190595.22147  22190598.75148
 116612370.65048       328.00048        79.00047       204.00048
 117537709.30747  91587834.56748  22366679.73148  22366678.68947  22366677.69748
 117537715.81148       276.00048        64.00047       137.00048
 131149903.06746 102194737.17046  24957001.98147  24957000.58546  24957008.30146
 131149902.56147        59.00047        20.00046        22.00046
 115663827.59848  90127669.43348  22010091.96848  22010091.54148  22010092.40248
 115663830.09948       388.00048       106.00048       218.00048
 116491082.14747  90772276.51647  22167516.16948  22167515.48347  22167515.91047
 116491087.64748       299.00048        56.00047        89.00047
 107253133.50348  83573880.27548  20409589.73849  20409589.51448  20409590.02448
 107253133.99949       582.00049       430.00048       472.00048
 105083349.10049  81883148.34749  19996689.10649  19996688.78049  19996688.96049
 105083351.59849       663.00049      1381.00049      2055.00049
 111628728.83348  86983433.96848  21242239.30248  21242237.80648  21242237.40348
 111628738.32948       431.00048       170.00048       257.00048
 105900402.08449  82519827.92249  20152168.53149  20152167.94749  20152170.82849
 105900405.57849       879.00049       522.00049       749.00049
 23 06 21 06 05 50.0000000  0 10 01 02 06 07 13 14 17 19 21 30
 116543117.34747  90812834.65748  22177416.92648  22177416.54747  22177420.12748
 116543116.85148       329.00048        78.00047       205.00048
 117382768.49747  91467101.53848  22337195.28248  22337194.26647  22337193.36448
 117382774.99148       281.00048        64.00047       139.00048
 131505408.35346 102471753.92946  25024653.19147  25024651.91246  25024658.15546
 131505407.85047        55.00047        20.00046        21.00046
 115940756.17548  90343457.90448  22062789.68148  22062789.46748  22062790.22348
 115940758.67848       379.00048       101.00048       213.00048
 116370236.41447  90678111.04147  22144519.90348  22144519.28447  22144519.69647
 116370241.91848       302.00048        56.00047        88.00047
 107044979.86948  83411682.68648  20369979.36149  20369979.15448  20369979.68748
 107044980.36449       586.00049       435.00048       482.00048
 105157442.19549  81940883.24649  20010788.64249  20010788.23049  20010788.38649
 105157444.69249       661.00049      1376.00049      2008.00049
 111793021.47748  87111454.20648  21273503.16548  21273501.66548  21273501.30848
 111793030.97648       425.00048       164.00048       255.00048
 119426961.40956  93059971.82956  22726196.57948  22726195.26646  22726195.75046
 119426968.88458       189.00048        37.00046        47.00046
 106010193.42449  82605379.64149  20173061.09849  20173060.52249  20173063.40449
 106010196.91849       872.00049       512.00049       737.00049
 23 06 21 06 06 00.0000000  0 11 01 02 06 07 13 14 15 17 19 21 30
 116476575.95147  90760984.28748  22164754.40948  22164754.15147  22164757.63548
 116476575.45648       330.00048        79.00047       209.00048
 117230046.92747  91348097.81148  22308133.32948  22308132.14247  22308131.38648
 117230053.41848       285.00048        66.00047       143.00048
 131861274.64246 102749051.95946  25092371.91947  25092372.07446  25092378.11646
 131861274.14147        53.00047        19.00046        19.00046
 116221888.74047  90562522.20148  22116287.49548  22116287.09747  22116288.01948
 116221891.24448       369.00048        98.00047       206.00048
 116254315.52047  90587783.09447  22122460.99748  22122460.23547  22122460.58847
 116254321.00548       306.00048        56.00047        91.00047
 106841858.98748  83253406.73248  20331326.70449  20331326.53148  20331327.01148
 106841859.48349       590.00049       440.00048       493.00048
 131352831.99256 102352863.05657  24995613.24047  24995612.86746  24995614.61247
 131352833.47257        94.00047        33.00046        58.00047
 105235897.00649  82002016.88449  20025718.00949  20025717.65649  20025717.82249
 105235899.50349       661.00049      1366.00049      1965.00049
 111960586.44548  87242024.30348  21305389.61248  21305388.22248  21305387.85948
 111960595.94248       419.00048       159.00048       253.00048
 119237431.38146  92912286.21746  22690130.01248  22690129.02146  22690129.56046
 119237438.87148       193.00048        38.00046        47.00046
 106126754.46649  82696206.46049  20195241.92649  20195241.33749  20195244.18749
 106126757.96049       864.00049       505.00049       724.00049
 23 06 21 06 06 10.0000000  0 10 01 02 07 13 14 15 17 19 21 30
 116412755.51547  90711254.15648  22152609.71048  22152609.61647  22152612.94548
 116412755.01548       331.00048        79.00047       215.00048
 117079564.71247  91230839.05548  22279497.49948  22279496.30547  22279495.45548
 117079571.20648       289.00048        69.00047       146.00048
 116507149.36647  90784803.17648  22170570.86748  22170570.41947  22170571.29648
 116507151.86448       360.00048        91.00047       199.00048
 116143353.62647  90501319.31747  22101345.57648  22101344.92847  22101345.28347
 116143359.11048       308.00048        58.00047        90.00047
 106643826.16548  83099095.49549  20293642.27449  20293642.07748  20293642.58449
 106643826.66149       597.00049       447.00048       507.00049
 131086478.80146 102145315.32647  24944927.86847  24944927.58846  24944928.91647
 131086480.31247        97.00047        34.00046        59.00047
 105318698.79849  82066537.79749  20041474.70749  20041474.31549  20041474.44549
 105318701.29549       659.00049      1361.00049      1922.00049
 112131397.29048  87375123.66248  21337893.81648  21337892.45948  21337892.08448
 112131406.78548       414.00048       157.00048       249.00048
 119049760.12346  92766049.00646  22654417.08148  22654416.06946  22654416.93746
 119049767.63248       197.00048        39.00046        49.00046
 106250043.66748  82792275.99849  20218703.07749  20218702.45948  20218705.31349
 106250047.16249       859.00049       494.00048       709.00049
 23 06 21 06 06 20.0000000  0 10 01 02 07 13 14 15 17 19 21 30
 116351664.19647  90663650.66048  22140984.46048  22140984.26347  22140987.49448
 116351663.70148       332.00048        80.00047       219.00048
 116931341.73947  91115340.75348  22251291.43248  22251290.31647  22251289.39448
 116931348.23648       291.00048        70.00047       146.00048
 116796461.53747  91010241.20448  22225625.13148  22225624.72247  22225625.60748
 116796464.03448       350.00048        87.00047       192.00048
 116037383.63147  90418745.33247  22081180.11348  22081179.61147  22081179.89547
 116037389.11848       309.00048        57.00047        94.00047
 106450935.67248  82948791.27249  20256936.36149  20256936.21148  20256936.68449
 106450936.16849       601.00049       454.00048       525.00049
 130822453.12046 101939581.21247  24894685.29047  24894685.22046  24894686.19347
 130822454.61747        99.00047        35.00046        64.00047
 105405831.80149  82134433.67749  20058055.51949  20058055.14149  20058055.26749
 105405834.29849       657.00049      1354.00049      1885.00049
 112305427.08148  87510731.29548  21371010.73948  21371009.20048  21371008.88148
 112305436.57948       410.00048       154.00048       245.00048
 118863971.07346  92621278.41947  22619062.71148  22619061.11146  22619062.18847
 118863978.55648       201.00048        41.00046        54.00047
 106380017.39648  82893554.26349  20243436.21749  20243435.60748  20243438.44249
 106380020.89149       850.00049       483.00048       694.00049
 23 06 21 06 06 30.0000000  0 10 01 02 07 13 14 15 17 19 21 30
 116293309.71847  90618179.74848  22129879.80248  22129879.58847  22129882.91148
 116293309.22048       332.00048        80.00047       220.00048
 116785397.61147  91001618.15948  22223519.23648  22223518.04447  22223517.12648
 116785404.11048       295.00048        71.00047       149.00048
 117089748.53047  91238776.50548  22281435.71948  22281435.47947  22281436.22448
 117089751.02748       339.00048        79.00047       188.00048
 115936437.05747  90340085.72347  22061970.64548  22061970.01547  22061970.24647
 115936442.56648       311.00048        57.00047        94.00047
 106263240.72948  82802535.53349  20221219.23749  20221218.97148  20221219.46549
 106263241.22549       606.00049       463.00048       541.00049
 130560808.88446 101735702.81347  24844895.91148  24844895.28946  24844896.85747
 130560810.40048       101.00048        37.00046        64.00047
 105497279.41549  82205691.59849  20075457.37449  20075457.03049  20075457.12749
 105497281.91349       657.00049      1346.00049      1843.00049
 112482648.40448  87648825.84848  21404734.69248  21404733.25448  21404732.93748
 112482657.90348       405.00048       149.00048       240.00048
 118680087.46646  92477992.61747  22584070.79348  22584069.47046  22584070.25447
 118680094.95548       205.00048        42.00046        54.00047
 106516629.96948  83000005.66849  20269432.66449  20269432.09248  20269434.89549
 106516633.46449       842.00049       472.00048       678.00049
 23 06 21 06 06 40.0000000  0 10 01 02 07 13 14 15 17 19 21 30
 116237699.34447  90574847.08748  22119297.40348  22119297.17047  22119300.52248
 116237698.84748       332.00048        80.00047       225.00048
 116641751.73947  90889686.41748  22196184.20148  22196183.11147  22196182.03748
 116641758.24048       297.00048        72.00047       152.00048
 117386933.18547  91470348.96348  22337988.20948  22337987.69047  22337988.60148
 117386935.68748       331.00048        78.00047       180.00048
 115840544.10947  90265363.98347  22043722.75748  22043722.09547  22043722.34547
 115840549.60048       312.00048        59.00047        95.00047
 106080793.30448  82660368.76449  20186500.53449  20186500.35648  20186500.85049
 106080793.79949       610.00049       465.00048       564.00049
 130301599.84746 101533721.94247  24795569.81248  24795569.25846  24795570.72447
 130301601.35748       102.00048        38.00046        68.00047
 105593024.06449  82280297.85949  20093676.99349  20093676.59049  20093676.68649
 105593026.56149       654.00049      1339.00049      1801.00049
 112663033.30448  87789385.52948  21439060.76248  21439059.38148  21439059.05548
 112663042.80348       402.00048       147.00048       237.00048
 118498132.31946  92336209.49547  22549445.67448  22549444.56646  22549445.17447
 118498139.81748       210.00048        44.00046        56.00047
 106659833.54448  83111592.91849  20296683.39949  20296682.75348  20296685.57849
 106659837.03749       834.00049       464.00048       665.00049
 23 06 21 06 06 50.0000000  0 10 01 02 07 13 14 15 17 19 21 30
 116184840.12747  90533658.18348  22109238.61748  22109238.39647  22109241.64248
 116184839.63148       332.00048        82.00047       226.00048
 116500423.13647  90779560.31748  22169290.12848  22169289.19747  22169288.11248
 116500429.62548       301.00048        72.00047       152.00048
 117687938.09847  91704898.24348  22395267.45748  22395267.07747  22395267.83448
 117687940.60148       322.00048        71.00047       174.00048
 115749733.48247  90194602.50347  22026441.90248  22026441.11947  22026441.59347
 115749738.97048       312.00048        62.00047        98.00047
 105903644.30548  82522330.63249  20152790.20049  20152790.03248  20152790.44149
 105903644.79849       612.00049       469.00048       583.00049
 130044879.49546 101333680.27847  24746717.28148  24746716.97746  24746718.39247
 130044880.99548       105.00048        39.00046        73.00047
 105693047.18849  82358237.99049  20112710.65049  20112710.34649  20112710.40649
 105693049.68649       654.00049      1331.00049      1761.00049
 112846553.53248  87932388.32648  21473983.63748  21473982.06448  21473981.76648
 112846563.03148       398.00048       144.00048       233.00048
 118318128.85446  92195947.15247  22515192.25348  22515190.91846  22515191.68147
 118318136.34648       213.00048        44.00046        59.00047
 106809578.38148  83228277.24749  20325178.87849  20325178.25148  20325181.00349
 106809581.87649       827.00049       458.00048       654.00049
 23 06 21 06 07 00.0000000  0 10 01 02 07 13 14 15 17 19 21 30
 116134738.61447  90494618.13548  22099704.58148  22099704.19247  22099707.58848
 116134738.11748       332.00048        80.00047       230.00048
 116361431.01447  90671254.85948  22142840.74748  22142839.61047  22142838.65148
 116361437.51348       306.00048        74.00047       157.00048
 117992685.52747  91942363.75748  22453259.15048  22453258.65247  22453259.41748
 117992688.02148       314.00048        71.00047       168.00048
 115664032.61047  90127822.65548  22010133.59248  22010132.81447  22010133.26548
 115664038.11148       313.00048        60.00047       101.00048
 105731843.41848  82388459.85849  20120097.51149  20120097.31848  20120097.80149
 105731843.91049       615.00049       471.00048       608.00049
 129790701.14746 101135619.41747  24698348.76348  24698348.35446  24698349.58047
 129790702.65648       106.00048        40.00046        76.00047
 105797329.42649  82439496.90249  20132554.96549  20132554.58349  20132554.62749
 105797331.92449       652.00049      1324.00049      1714.00049
 113033180.35348  88077811.83248  21509497.50348  21509496.02248  21509495.62648
 113033189.85048       393.00048       142.00048       230.00048
 118140100.15646  92057223.58647  22481314.28148  22481312.98946  22481313.84447
 118140107.64948       216.00048        46.00046        58.00047
 106965812.76748  83350018.35849  20354909.28149  20354908.64648  20354911.39549
 106965816.26249       820.00049       447.00048       642.00049
 23 06 21 06 07 10.0000000  0 10 01 02 07 13 14 15 17 19 21 30
 116087400.96847  90457731.72648  22090696.36948  22090696.15147  22090699.46048
 116087400.46048       332.00048        79.00047       228.00048
 116224794.12147  90564784.63248  22116839.48248  22116838.38147  22116837.41548
 116224800.62048       310.00048        78.00047       158.00048
 118301097.52847  92182684.78948  22511947.96848  22511947.38747  22511948.28548
 118301100.02948       306.00048        66.00047       163.00048
 115583467.47047  90065044.66348  21994802.52148  21994801.82447  21994802.18348
 115583472.95348       316.00048        62.00047       102.00048
 105565439.06748  82258794.17349  20088431.82649  20088431.60048  20088432.09049
 105565439.55949       618.00049       476.00048       629.00049
 129539117.84446 100939580.64647  24650474.21048  24650473.53346  24650474.70447
 129539119.34348       108.00048        41.00046        83.00047
 105905850.52749  82524058.82449  20153205.81549  20153205.46249  20153205.47149
 105905853.02549       649.00049      1313.00049      1673.00049
 113222884.60448  88225633.33448  21545597.00248  21545595.52148  21545595.14548
 113222894.10148       387.00048       137.00048       223.00048
 117964069.10046  91920056.64547  22447816.73248  22447815.69746  22447816.01347
 117964076.60948       220.00048        49.00046        63.00047
 107128483.12948  83476774.51349  20385864.36449  20385863.78148  20385866.48249
 107128486.62349       813.00049       441.00048       629.00049
 23 06 21 06 07 20.0000000  0 10 01 02 07 13 14 15 17 19 21 30
 116042832.94547  90423003.48448  22082215.30648  22082215.03947  22082218.31648
 116042832.44948       332.00048        79.00047       229.00048
 116090530.94447  90460164.05148  22091290.17648  22091288.90847  22091287.96948
 116090537.43448       316.00048        82.00047       161.00048
 118613096.02347  92425800.47648  22571319.29748  22571318.81147  22571319.62148
 118613098.52348       298.00048        62.00047       159.00048
 115508062.40147  90006287.51948  21980453.36248  21980452.73547  21980452.99348
 115508067.89348       320.00048        61.00047       104.00048
 105404478.43648  82133370.34849  20057801.91149  20057801.75648  20057802.24649
 105404478.92449       621.00049       480.00048       653.00049
 129290182.37246 100745605.11047  24603103.06148  24603102.60546  24603103.75947
 129290183.84948       109.00048        42.00046        88.00047
 106018589.37849  82611907.30949  20174659.28849  20174658.92649  20174658.92749
 106018591.87449       645.00049      1297.00049      1632.00049
 113415636.66148  88375829.73848  21582276.47748  21582274.98448  21582274.61748
 113415646.15648       382.00048       132.00048       220.00048
 117790058.28447  91784463.87847  22414703.53648  22414702.33347  22414702.91347
 117790065.78348       225.00048        53.00047        62.00047
 107297534.00748  83608502.49449  20418033.67649  20418033.01748  20418035.77749
 107297537.50149       805.00049       431.00048       615.00049
 23 06 21 06 07 30.0000000  0 10 01 02 07 13 14 15 17 19 21 30
 116001039.95047  90390437.59148  22074262.32648  22074261.90947  22074265.37048
 116001039.45448       333.00048        80.00047       233.00048
 115958659.65847  90357407.29148  22066195.73748  22066194.62047  22066193.58248
 115958666.15648       320.00048        85.00047       161.00048
 118928602.74747  92671649.84748  22631358.07648  22631357.65747  22631358.62848
 118928605.24148       291.00048        62.00047       153.00048
 115437840.44247  89951569.15448  21967090.48148  21967089.86347  21967090.29248
 115437845.93348       323.00048        65.00047       105.00048
 105249007.36448  82012224.10549  20028216.78949  20028216.57848  20028217.04249
 105249007.85049       628.00049       490.00048       675.00049
 129043947.01346 100553733.59347  24556246.06848  24556245.34546  24556246.67747
 129043948.51448       112.00048        43.00046        95.00047
 106135523.86149  82703025.12849  20196911.14549  20196910.78749  20196910.76749
 106135526.35949       641.00049      1279.00049      1595.00049
 113611406.61948  88528377.76548  21619530.27648  21619528.73948  21619528.47848
 113611416.11548       375.00048       127.00048       213.00048
 117618090.33947  91650462.98047  22381978.97248  22381977.63247  22381978.48547
 117618097.83948       230.00048        51.00047        67.00047
 107472908.24448  83745157.78549  20451406.28449  20451405.65048  20451408.30149
 107472911.73649       793.00049       418.00048       605.00049
 23 06 21 06 07 40.0000000  0 10 01 02 07 13 14 15 17 19 21 30
 115962026.94047  90360037.92748  22066838.30648  22066838.04347  22066841.36048
 115962026.44848       332.00048        80.00047       232.00048
 115829198.20247  90256528.31448  22041560.02348  22041558.96847  22041557.71548
 115829204.69448       325.00048        86.00047       167.00048
 119247539.23747  92920171.77848  22692049.90448  22692049.48547  22692050.18848
 119247541.73648       284.00048        56.00047       147.00048
 115372823.12647  89900906.36048  21954718.10348  21954717.40247  21954717.79648
 115372828.61748       326.00048        65.00047       108.00048
 105099070.31848  81895390.08749  19999684.66349  19999684.46048  19999684.93049
 105099070.80349       636.00049       500.00048       703.00049
 128800463.98246 100364006.73048  24509912.42648  24509911.93046  24509913.10448
 128800465.48648       114.00048        45.00046       102.00048
 106256631.15249  82797394.48649  20219957.01949  20219956.70249  20219956.67549
 106256633.64949       636.00049      1257.00049      1559.00049
 113810164.09548  88683253.73948  21657352.51348  21657351.04848  21657350.64648
 113810173.59248       368.00048       122.00048       209.00048
 117448187.52647  91518071.26247  22349647.46848  22349646.37047  22349646.87147
 117448195.01848       235.00048        53.00047        67.00047
 107654546.82148  83886694.37749  20485970.87749  20485970.27948  20485972.92549
 107654550.31449       778.00049       403.00048       591.00049
 23 06 21 06 07 50.0000000  0 10 01 02 07 13 14 15 17 19 21 30
 115925798.51447  90331808.04448  22059944.21848  22059944.06447  22059947.23248
 115925798.01548       333.00048        81.00047       233.00048
 115702164.42647  90157541.02948  22017386.36748  22017385.23047  22017384.02748
 115702170.92048       331.00048        92.00047       171.00048
 119569827.05647  93171305.12948  22753379.17848  22753378.60347  22753379.49648
 119569829.55048       277.00048        55.00047       143.00048
 115313030.32947  89854314.62148  21943339.89348  21943339.21847  21943339.47848
 115313035.83148       329.00048        65.00047       108.00048
 104954710.45649  81782901.92349  19972213.90849  19972213.67049  19972214.12449
 104954710.93749       644.00049       509.00049       728.00049
 128559785.16046 100176464.93248  24464112.80648  24464112.26246  24464113.22848
 128559786.65448       117.00048        47.00046       107.00048
 106381887.48749  82894996.85949  20243792.43449  20243792.17349  20243792.12049
 106381889.98449       630.00049      1238.00049      1525.00049
 114011878.38448  88840433.72148  21695737.45048  21695736.00548  21695735.58748
 114011887.88248       360.00048       117.00048       204.00048
 117280372.04947  91387306.03147  22317713.13548  22317711.92347  22317712.45647
 117280379.54848       241.00048        57.00047        71.00047
 107842389.11648  84033065.03349  20521716.03049  20521715.44148  20521718.10749
 107842392.61249       763.00049       384.00048       575.00049
 23 06 21 06 08 00.0000000  0 10 01 02 07 13 14 15 17 19 21 30
 115892358.75047  90305751.15248  22053580.84248  22053580.49847  22053583.76948
 115892358.25148       334.00048        81.00047       233.00048
 115577575.69447  90060458.95548  21993677.85748  21993676.65147  21993675.54348
 115577582.19048       336.00048        89.00047       176.00048
 119895387.50747  93424988.59348  22815331.30448  22815330.58947  22815331.62248
 119895390.00648       270.00048        52.00047       136.00048
 115258480.65547  89811808.41348  21932959.55748  21932958.69647  21932959.02548
 115258486.15448       331.00048        67.00047       111.00048
 104815969.37049  81674792.02349  19945812.32849  19945812.12049  19945812.53149
 104815969.85049       651.00049       523.00049       756.00049
 128321961.91646  99991148.26748  24418856.38448  24418855.82846  24418856.94048
 128321963.42148       119.00048        47.00046       114.00048
 106511268.32249  82995813.12449  20268412.82549  20268412.51149  20268412.45249
 106511270.82049       624.00049      1212.00049      1496.00049
 114216518.46248  88999893.52948  21734679.13148  21734677.61048  21734677.33748
 114216527.96148       353.00048       114.00048       197.00048
 117114666.18147  91258184.63547  22286180.40048  22286179.14947  22286179.56547
 117114673.67348       246.00048        58.00047        70.00047
 108036372.85148  84184221.22849  20558629.83749  20558629.26648  20558631.95149
 108036376.34549       747.00049       371.00048       558.00049
 23 06 21 06 08 10.0000000  0 10 01 02 07 13 14 15 17 19 21 30
 115861711.43847  90281870.18048  22047748.71348  22047748.50647  22047751.67648
 115861710.93548       333.00048        81.00047       236.00048
 115455449.16147  89965295.47548  21970437.93648  21970436.61447  21970435.51348
 115455455.66148       340.00048        92.00047       179.00048
 120224142.21446  93681161.06648  22877891.10448  22877890.72046  22877891.62748
 120224144.71048       261.00048        50.00046       132.00048
 115209191.11547  89773401.00448  21923579.98448  21923579.43747  21923579.53548
 115209196.61248       334.00048        68.00047       111.00048
 104682887.33149  81571091.76049  19920487.68649  19920487.39749  19920487.81849
 104682887.80849       657.00049       529.00049       783.00049
 128087045.36747  99808096.53848  24374153.42448  24374152.65247  24374153.69948
 128087046.86948       123.00048        51.00047       121.00048
 106644748.46949  83099823.64849  20293813.25749  20293812.91949  20293812.85449
 106644750.96649       619.00049      1191.00049      1460.00049
 114424052.86648  89161608.66048  21774171.60248  21774170.19648  21774169.78048
 114424062.36448       346.00048       111.00048       192.00048
 116951091.90247  91130724.22547  22255053.13148  22255051.93047  22255052.38347
 116951099.40148       251.00048        61.00047        74.00047
 108236434.13048  84340113.15849  20596700.23349  20596699.61748  20596702.30549
 108236437.62549       733.00049       356.00048       545.00049
 23 06 21 06 08 20.0000000  0 10 01 02 07 13 14 15 17 19 21 30
 115833859.87847  90260167.72048  22042448.82648  22042448.42647  22042451.67348
 115833859.37948       335.00048        81.00047       235.00048
 115335801.77147  89872063.81448  21947669.62148  21947668.41747  21947667.32348
 115335808.27548       343.00048        97.00047       182.00048
 120556012.53146  93939761.28148  22941044.06548  22941043.52846  22941044.45448
 120556015.02348       255.00048        49.00046       128.00048
 115165177.07347  89739104.37548  21915204.30848  21915203.57447  21915203.87248
 115165182.57148       336.00048        69.00047       113.00048
 104555503.02049  81471831.28649  19896247.16649  19896246.94949  19896247.36849
 104555503.49449       661.00049       538.00049       813.00049
 127855086.18047  99627349.23148  24330012.42248  24330012.26047  24330013.22948
 127855087.67648       126.00048        54.00047       124.00048
 106782301.75749  83207008.05049  20319988.72949  20319988.40649  20319988.34849
 106782304.25449       614.00049      1170.00049      1426.00049
 114634449.79848  89325554.32948  21814208.80748  21814207.36148  21814206.99748
 114634459.29548       339.00048       107.00048       187.00048
 116789670.97547  91004941.76147  22224335.63348  22224334.71747  22224334.80247
 116789678.46048       256.00048        62.00047        75.00047
 108442507.61548  84500689.93349  20635914.72549  20635914.06948  20635916.76249
 108442511.10849       720.00049       341.00048       531.00049
 23 06 21 06 08 30.0000000  0 10 01 02 07 13 14 15 17 19 21 30
 115808807.02947  90240646.06348  22037681.32048  22037681.14447  22037684.22548
 115808806.53148       336.00048        83.00047       236.00048
 115218650.13847  89780776.89348  21925376.28048  21925374.99247  21925374.09348
 115218656.63848       347.00048        97.00047       187.00048
 120890920.13246  94200728.19848  23004774.70748  23004774.27446  23004775.43948
 120890922.62448       247.00048        44.00046       122.00048
 115126452.37147  89708929.30248  21907835.31748  21907834.63747  21907834.79348
 115126457.85848       335.00048        67.00047       115.00048
 104433853.67549  81377039.61249  19873098.02249  19873097.82749  19873098.23149
 104433854.14749       665.00049       549.00049       843.00049
 127626134.50047  99448945.42548  24286444.66048  24286444.27647  24286444.98548
 127626135.99448       128.00048        57.00047       128.00048
 106923901.24349  83317345.34149  20346934.25549  20346933.86649  20346933.82149
 106923903.74049       609.00049      1152.00049      1398.00049
 114847677.29648  89491705.63048  21854784.78748  21854783.18248  21854782.87548
 114847686.79648       334.00048       101.00048       181.00048
 116630424.93947  90880854.03247  22194032.03848  22194030.76847  22194031.28347
 116630432.43348       259.00048        64.00047        77.00047
 108654526.45048  84665899.42049  20676260.57049  20676259.93348  20676262.59149
 108654529.94349       709.00049       331.00048       523.00049
 23 06 21 06 08 40.0000000  0 10 01 02 07 13 14 15 17 19 21 30
 115786555.47847  90223307.24848  22033446.87748  22033446.61247  22033449.87548
 115786554.97748       336.00048        79.00047       233.00048
 115104010.65047  89691447.49448  21903561.06448  21903559.92547  21903558.71448
 115104017.14648       351.00048        99.00047       189.00048
 121228786.28746  94464000.49848  23069068.63548  23069068.15146  23069069.09348
 121228788.80848       238.00048        40.00046       117.00048
 115093029.28447  89682885.37748  21901475.11248  21901474.49647  21901474.63948
 115093034.78748       336.00048        66.00047       116.00048
 104317974.96249  81286744.53749  19851047.00549  19851046.79649  19851047.23049
 104317975.43349       672.00049       557.00049       866.00049
 127400240.21347  99272924.01548  24243458.03148  24243457.67047  24243458.78348
 127400241.70948       131.00048        55.00047       129.00048
 107069519.24749  83430813.93849  20374644.39949  20374644.06049  20374643.97749
 107069521.74449       605.00049      1134.00049      1366.00049
 115063703.08147  89660037.40548  21895892.93448  21895891.42847  21895891.13348
 115063712.57948       327.00048        96.00047       179.00048
 116473375.22347  90758477.72047  22164146.45148  22164145.25347  22164145.73947
 116473382.72448       263.00048        66.00047        78.00047
 108872422.46048  84835688.54249  20717724.77949  20717724.10448  20717726.81549
 108872425.95449       696.00049       321.00048       516.00049
 23 06 21 06 08 50.0000000  0 10 01 02 07 13 14 15 17 19 21 30
 115767107.23147  90208152.83748  22029745.99648  22029745.86747  22029748.94648
 115767106.73248       336.00048        85.00047       235.00048
 114991899.32547  89604088.09948  21882227.00648  21882225.84247  21882224.69148
 114991905.82548       353.00048       100.00047       194.00048
 121569532.67146  94729517.11048  23133910.62648  23133909.87646  23133911.04148
 121569535.16548       229.00048        39.00046       113.00048
 115064918.54647  89660980.92548  21896125.75048  21896124.86047  21896125.22948
 115064924.03948       337.00048        69.00047       116.00048
 104207900.89449  81200972.56449  19830100.66249  19830100.39249  19830100.78549
 104207901.36349       681.00049       575.00049       892.00049
 127177452.68647  99099323.46648  24201062.74148  24201062.75547  24201063.44048
 127177454.18148       133.00048        60.00047       131.00048
 107219127.35249  83547391.70549  20403113.92949  20403113.51649  20403113.42749
 107219129.84849       601.00049      1122.00049      1346.00049
 115282494.22747  89830524.01248  21937527.42448  21937526.04147  21937525.73948
 115282503.72848       321.00048        95.00047       172.00048
 116318543.12547  90637829.40747  22134682.80748  22134681.85347  22134682.01047
 116318550.61748       266.00048        68.00047        78.00047
 109096126.04148  85010003.06549  20760294.10949  20760293.48048  20760296.15549
 109096129.53749       684.00049       306.00048       508.00049
 23 06 21 06 09 00.0000000  0 10 01 02 07 13 14 15 17 19 21 30
 115750464.01147  90195184.16148  22026578.85748  22026578.67847  22026581.72548
 115750463.51248       336.00048        83.00047       233.00048
 114882331.88848  89518710.94048  21861376.95448  21861375.85448  21861374.59548
 114882338.38348       358.00048       102.00048       195.00048
 121913080.91646  94997217.03148  23199285.63748  23199285.04746  23199286.17248
 121913083.42348       221.00048        35.00046       105.00048
 115042129.31947  89643223.12148  21891789.14848  21891788.43947  21891788.63248
 115042134.81548       338.00048        68.00047       117.00048
 104103663.95749  81119749.00949  19810264.95249  19810264.71249  19810265.10749
 104103664.42449       691.00049       596.00049       917.00049
 126957820.90747  98928181.93548  24159268.22348  24159267.64747  24159268.81848
 126957822.39848       134.00048        61.00047       134.00048
 107372696.53249  83667056.02849  20432337.07449  20432336.76149  20432336.65049
 107372699.02849       598.00049      1107.00049      1324.00049
 115504017.84047  90003139.80848  21979682.08048  21979680.71047  21979680.27548
 115504027.34148       316.00048        90.00047       169.00048
 116165949.74647  90518925.56047  22105645.21448  22105644.05947  22105644.29447
 116165957.25048       269.00048        69.00047        78.00047
 109325566.22748  85188787.63949  20803955.14549  20803954.47548  20803957.14849
 109325569.72249       667.00049       295.00048       503.00049
 23 06 21 06 09 10.0000000  0 10 01 02 07 13 14 15 17 19 21 30
 115736627.06147  90184402.18148  22023945.73148  22023945.62347  22023948.60448
 115736626.56148       335.00048        80.00047       233.00048
 114775323.75848  89435328.04648  21841013.98048  21841012.78648  21841011.58948
 114775330.25748       361.00048       104.00048       199.00048
 122259352.97646  95267039.40148  23265179.20448  23265178.47446  23265179.53948
 122259355.47948       213.00048        37.00046       101.00048
 115024669.13547  89629617.81148  21888466.46048  21888465.92147  21888465.90648
 115024674.63148       339.00048        67.00047       118.00048
 104005294.90949  81043097.83049  19791545.94849  19791545.69849  19791546.07049
 104005295.37449       704.00049       613.00049       946.00049
 126741393.03947  98759536.99048  24118083.30248  24118082.91347  24118083.94748
 126741394.54548       137.00048        61.00047       139.00048
 107530196.95149  83789783.65849  20462308.38549  20462308.07149  20462307.95049
 107530199.44849       593.00049      1093.00049      1310.00049
 115728240.67547  90177858.89248  22022350.21948  22022348.83047  22022348.44948
 115728250.16948       311.00048        86.00047       164.00048
 116015615.89247  90401782.36047  22077037.64248  22077036.50947  22077036.73747
 116015623.38448       272.00048        69.00047        78.00047
 109560671.02448  85371986.22848  20848694.02749  20848693.38648  20848696.07748
 109560674.51549       650.00049       279.00048       495.00048
 23 06 21 06 09 20.0000000  0 10 01 02 07 13 14 15 17 19 21 30
 115725597.27447  90175807.60348  22021846.80048  22021846.64247  22021849.70248
 115725596.78348       334.00048        81.00047       235.00048
 114670890.07848  89353951.21348  21821140.89948  21821139.75648  21821138.51348
 114670896.57248       365.00048       105.00048       199.00048
 122608270.77646  95538923.38047  23331575.85348  23331575.18146  23331576.29147
 122608273.28248       205.00048        33.00046        97.00047
 115012543.89547  89620169.60748  21886159.10248  21886158.47847  21886158.67748
 115012549.38848       340.00048        68.00047       117.00048
 103912822.90849  80971041.74949  19773949.10749  19773948.85249  19773949.19549
 103912823.37249       714.00049       636.00049       984.00049
 126528216.96147  98593425.90448  24077517.46148  24077516.80147  24077517.67048
 126528218.46148       139.00048        62.00047       141.00048
 107691598.10549  83915550.82949  20493022.01449  20493021.67049  20493021.54449
 107691600.60249       590.00049      1081.00049      1295.00049
 115955129.29747  90354655.23348  22065525.71248  22065524.24147  22065523.94748
 115955138.79048       305.00048        85.00047       160.00048
 115867562.18247  90286415.90547  22048863.78148  22048862.82847  22048862.99247
 115867569.67648       277.00048        71.00047        82.00047
 109801367.09148  85559541.66348  20894496.89949  20894496.26848  20894498.93548
 109801370.58549       633.00049       260.00048       488.00048
 23 06 21 06 09 30.0000000  0 10 01 02 07 13 14 15 17 19 21 30
 115717375.10247  90169400.75648  22020282.13648  22020281.90547  22020284.96248
 115717374.60348       333.00048        80.00047       231.00048
 114569045.64148  89274591.97248  21801760.48048  21801759.39248  21801758.01548
 114569052.13748       369.00048       108.00048       199.00048
 122959756.56846  95812808.39647  23398461.45048  23398461.07046  23398461.97947
 122959759.08848       197.00048        33.00046        92.00047
 115005757.85847  89614881.80148  21884867.75848  21884867.21447  21884867.18948
 115005763.35248       339.00048        70.00047       116.00048
 103826275.37549  80903602.13149  19757479.60249  19757479.40349  19757479.74149
 103826275.83849       725.00049       656.00049      1022.00049
 126318339.93947  98429885.48148  24037578.87848  24037578.53447  24037579.23048
 126318341.43748       141.00048        67.00047       144.00048
 107856868.76049  84044333.19349  20524471.97549  20524471.60549  20524471.46149
 107856871.25649       586.00049      1061.00049      1282.00049
 116184649.89847  90533502.47048  22109202.06348  22109200.59547  22109200.24848
 116184659.39448       298.00048        81.00047       152.00048
 115721809.07847  90172842.13847  22021127.89248  22021126.91247  22021126.99947
 115721816.57648       279.00048        75.00047        82.00047
 110047579.91748  85751395.84248  20941349.62149  20941348.94748  20941351.66948
 110047583.41249       615.00049       249.00048       475.00048
 23 06 21 06 09 40.0000000  0 10 01 02 07 13 14 15 17 19 21 30
 115711960.58047  90165181.70748  22019251.76148  22019251.54247  22019254.62048
 115711960.08248       332.00048        80.00047       229.00048
 114469805.00548  89197261.67648  21782875.56048  21782874.43048  21782873.08848
 114469811.50248       374.00048       110.00048       201.00048
 123313732.74446  96088633.95147  23465820.85748  23465820.14446  23465821.40647
 123313735.24648       190.00048        29.00046        87.00047
 115004313.84847  89613756.61748  21884592.96748  21884592.30847  21884592.40548
 115004319.33448       338.00048        67.00047       116.00048
 103745678.03249  80840799.03549  19742142.42049  19742142.18849  19742142.57649
 103745678.49649       737.00049       681.00049      1063.00049
 126111808.82247  98268952.30148  23998277.30048  23998276.81347  23998277.59048
 126111810.32148       143.00048        67.00047       148.00048
 108025977.08249  84176105.94349  20556652.12249  20556651.82649  20556651.67349
 108025979.58049       579.00049      1035.00049      1273.00049
 116416768.43847  90714374.06648  22153372.77048  22153371.08547  22153370.91848
 116416777.93548       291.00048        78.00047       147.00048
 115578376.75047  90061076.76347  21993833.74348  21993832.43247  21993832.71247
 115578384.24948       285.00048        77.00047        85.00047
 110299234.07448  85947490.00748  20989237.82849  20989237.12048  20989239.84548
 110299237.57049       597.00049       235.00048       463.00048
 23 06 21 06 09 50.0000000  0 10 01 02 07 13 14 15 17 19 21 30
 115709353.38547  90163150.20048  22018755.45548  22018755.23847  22018758.37648
 115709352.88948       330.00048        81.00047       227.00048
 114373182.22648  89121971.27548  21764488.77948  21764487.63048  21764486.33048
 114373188.72648       376.00048       113.00048       200.00048
 123670121.89246  96366339.73647  23533639.61548  23533638.62146  23533639.96747
 123670124.38148       183.00048        28.00046        81.00047
 115008213.03447  89616794.98548  21885334.88648  21885334.08147  21885334.34748
 115008218.53348       338.00048        67.00047       116.00048
 103671054.87849  80782651.16149  19727942.09849  19727941.87349  19727942.20949
 103671055.34149       748.00049       707.00049      1110.00049
 125908669.69247  98110662.22548  23959621.02648  23959620.55947  23959621.31848
 125908671.18148       145.00048        72.00047       151.00048
 108198890.59249  84310843.75949  20589556.51349  20589556.15449  20589556.02749
 108198893.08949       571.00049      1004.00049      1261.00049
 116651450.70247  90897243.35948  22198031.23048  22198029.91247  22198029.51648
 116651460.19648       286.00048        77.00047       142.00048
 115437285.28947  89951135.44647  21966984.78748  21966983.66047  21966983.79147
 115437292.78348       290.00048        78.00047        83.00047
 110556253.02148  86147764.51448  21038146.87749  21038146.22748  21038148.92748
 110556256.51649       581.00049       221.00048       451.00048
 23 06 21 06 10 00.0000000  0 10 01 02 07 13 14 15 17 19 21 30
 115709552.67047  90163305.55248  22018793.39848  22018793.26747  22018796.20448
 115709552.17448       329.00048        77.00047       224.00048
 114279191.19248  89048731.57348  21746602.78748  21746601.74448  21746600.32148
 114279197.69048       379.00048       114.00048       200.00048
 124028846.81746  96645865.61847  23601902.36248  23601901.66946  23601903.13947
 124028849.32648       176.00048        27.00046        80.00047
 115017454.96047  89623996.52448  21887093.51048  21887092.88247  21887093.03448
 115017460.45248       337.00048        68.00047       115.00048
 103602428.10549  80729175.79349  19714882.87049  19714882.61349  19714882.94149
 103602428.56949       761.00049       733.00049      1148.00049
 125708968.08647  97955050.76248  23921618.93048  23921618.55347  23921619.21248
 125708969.58148       149.00048        71.00047       158.00048
 108375576.09649  84448520.77549  20623178.69349  20623178.28749  20623178.14949
 108375578.59249       561.00049       968.00049      1246.00049
 116888662.27947  91082083.54948  22243171.03948  22243169.60747  22243169.29748
 116888671.78148       278.00048        72.00047       138.00048
 115298554.47547  89843033.58247  21940585.01048  21940583.95247  21940583.98647
 115298561.96848       296.00048        84.00047        85.00047
 110818559.33048  86352159.02348  21088062.01749  21088061.39848  21088064.16448
 110818562.82249       567.00049       209.00048       435.00048
 23 06 21 06 10 10.0000000  0 10 01 02 07 13 14 15 17 19 21 30
 115712557.23447  90165646.82948  22019365.07648  22019364.96547  22019367.98048
 115712556.73648       327.00048        78.00047       224.00048
 114187845.34348  88977553.04448  21729220.25348  21729219.13748  21729217.74548
 114187851.84048       381.00048       116.00048       201.00048
 124389830.72746  96927151.72347  23670595.29948  23670594.90446  23670596.05947
 124389833.22748       169.00048        25.00046        74.00047
 115032037.46947  89635359.55348  21889868.46248  21889867.84047  21889867.87548
 115032042.96248       337.00048        67.00047       115.00048
 103539818.07849  80680388.78649  19702968.56649  19702968.29049  19702968.61549
 103539818.54449       773.00049       759.00049      1179.00049
 125512748.79947  97802152.74548  23884279.44048  23884279.15047  23884279.80348
 125512750.29648       153.00048        76.00047       165.00048
 108555999.85749  84589110.71149  20657512.14349  20657511.77849  20657511.65249
 108556002.35449       551.00049       935.00049      1229.00049
 117128368.48847  91268867.60048  22288785.71348  22288784.11747  22288784.00148
 117128377.98448       272.00048        69.00047       129.00048
 115162203.76147  89736786.34347  21914638.42148  21914637.22147  21914637.40247
 115162211.26048       300.00048        86.00047        86.00047
 111086074.60448  86560612.46648  21138968.57849  21138967.91348  21138970.60948
 111086078.09849       553.00049       199.00048       420.00048
 23 06 21 06 10 20.0000000  0 10 01 02 07 13 14 15 17 19 21 30
 115718365.49347  90170172.80948  22020470.36948  22020470.06147  22020473.11148
 115718364.99848       328.00048        77.00047       223.00048
 114099157.93448  88908446.03248  21712343.58548  21712342.48748  21712341.02948
 114099164.42848       384.00048       117.00048       203.00048
 124752997.02546  97210138.37847  23739703.65648  23739703.35546  23739704.41147
 124752999.52648       164.00048        25.00046        73.00047
 115051956.86047  89650881.16448  21893658.99948  21893658.27147  21893658.40948
 115051962.35348       338.00048        68.00047       115.00048
 103483243.47749  80636304.71849  19692202.68149  19692202.48949  19692202.79449
 103483243.94349       784.00049       783.00049      1204.00049
 125320056.25947  97652002.88348  23847611.23448  23847610.84947  23847611.52248
 125320057.75448       156.00048        75.00047       171.00048
 108740127.65649  84732586.89749  20692550.49849  20692550.14849  20692550.01849
 108740130.15349       540.00049       902.00049      1211.00049
 117370534.49747  91457568.37348  22334868.19748  22334866.97647  22334866.57948
 117370544.00048       265.00048        64.00047       127.00048
 115028252.49147  89632408.80247  21889148.16048  21889147.10847  21889147.05447
 115028259.98948       306.00048        89.00047        90.00047
 111358719.67148  86773063.13048  21190851.29749  21190850.61348  21190853.31748
 111358723.16649       541.00049       191.00048       405.00048
 23 06 21 06 10 30.0000000  0 10 01 02 07 13 14 15 17 19 21 30
 115726975.39747  90176881.88048  22022108.68848  22022108.49947  22022111.52248
 115726974.89948       326.00048        77.00047       222.00048
 114013141.73448  88841420.49248  21695975.04248  21695974.07248  21695972.56448
 114013148.22948       386.00048       117.00048       206.00048
 125118269.61646  97494766.29247  23809213.19748  23809212.52646  23809213.43447
 125118272.09148       159.00048        26.00046        67.00047
 115077207.85447  89670557.28048  21898464.16848  21898463.41747  21898463.56448
 115077213.34948       339.00048        68.00047       119.00048
 103432721.07949  80596936.66649  19682588.55449  19682588.35149  19682588.63449
 103432721.54749       792.00049       806.00049      1223.00049
 125130934.31047  97504635.42048  23811622.20748  23811621.88347  23811622.44848
 125130935.80648       160.00048        83.00047       181.00048
 108927924.62949  84878922.18449  20728287.10849  20728286.71849  20728286.61949
 108927927.12749       530.00049       869.00049      1184.00049
 117615125.31347  91648158.61148  22381412.51248  22381410.92147  22381410.66848
 117615134.82048       259.00048        60.00047       119.00048
 114896719.72647  89529915.81747  21864118.45548  21864117.14947  21864117.14247
 114896727.22148       310.00048        90.00047        92.00047
 111636414.55048  86989448.72148  21243694.78749  21243694.16648  21243696.90848
 111636418.04249       529.00049       183.00048       390.00048
 23 06 21 06 10 40.0000000  0 10 01 02 07 13 14 15 17 19 21 30
 115738384.57247  90185772.21448  22024279.70148  22024279.58847  22024282.53648
 115738384.07248       326.00048        76.00047       222.00048
 113929809.25848  88776486.17348  21680117.42248  21680116.47148  21680114.87548
 113929815.75148       388.00048       118.00048       209.00048
 125485572.46646  97780976.27447  23879108.66548  23879108.19246  23879108.99447
 125485574.97948       154.00048        25.00046        65.00047
 115107783.62047  89694382.56248  21904282.54348  21904281.88447  21904281.96448
 115107789.11548       340.00048        68.00047       118.00048
 103388265.86049  80562296.29749  19674128.97549  19674128.75049  19674129.00749
 103388266.33049       800.00049       821.00049      1235.00049
 124945425.51647  97360083.38148  23776320.93148  23776320.71947  23776321.09948
 124945427.01648       163.00048        87.00047       186.00048
 109119355.31549  85028088.94249  20764715.09549  20764714.76949  20764714.67649
 109119357.81249       524.00049       844.00049      1154.00049
 117862105.81147  91840610.92948  22428411.14948  22428409.67847  22428409.37648
 117862115.30648       253.00048        58.00047       114.00048
 114767624.28947  89429322.06347  21839552.17948  21839551.18047  21839551.05847
 114767631.78748       314.00048        94.00047        95.00047
 111919078.51348  87209706.34748  21297483.99449  21297483.30748  21297486.11148
 111919082.01049       517.00049       174.00048       376.00048
 23 06 21 06 10 50.0000000  0 10 01 02 07 13 14 15 17 19 21 30
 115752590.15947  90196841.58648  22026983.02348  22026982.66547  22026985.61448
 115752589.65648       325.00048        76.00047       221.00048
 113849172.55148  88713652.47148  21664772.63148  21664771.64148  21664770.11948
 113849179.04948       388.00048       121.00048       212.00048
 125854829.95646  98068709.27347  23949375.63348  23949375.23146  23949376.34547
 125854832.45448       149.00048        23.00046        64.00047
 115143675.69647  89722350.43848  21911112.47148  21911111.91747  21911112.00448
 115143681.19148       340.00048        69.00047       117.00048
 103349890.90149  80532393.79849  19666826.37549  19666826.16849  19666826.42149
 103349891.37149       807.00049       838.00049      1250.00049
 124763572.23747  97218379.77448  23741715.17248  23741714.92047  23741715.32048
 124763573.73148       168.00048        91.00047       192.00048
 109314383.81849  85180059.20149  20801827.87149  20801827.48449  20801827.35349
 109314386.31549       516.00049       818.00049      1126.00049
 118111440.60447  92034897.78348  22475857.97948  22475856.56547  22475856.34348
 118111450.09548       246.00048        57.00047       108.00048
 114640984.54847  89330641.85347  21815453.45048  21815452.23947  21815452.30247
 114640992.04748       319.00048        95.00047        98.00047
 112206630.10548  87433772.50848  21352203.30849  21352202.62348  21352205.36248
 112206633.59749       503.00049       166.00048       365.00048
 23 06 21 06 11 00.0000000  0 10 01 02 07 13 14 15 17 19 21 30
 115769588.89947  90210087.45048  22030217.63448  22030217.45347  22030220.30848
 115769588.39748       325.00048        76.00047       220.00048
 113771243.42448  88652928.58948  21649943.15848  21649942.07448  21649940.71048
 113771249.92448       391.00048       120.00048       218.00048
 126225966.90646  98357906.83947  24020000.86948  24020000.47346  24020001.67547
 126225969.41748       145.00048        21.00046        59.00047
 115184874.05047  89754453.09848  21918952.20948  21918951.39147  21918951.68148
 115184879.54248       338.00048        69.00047       118.00048
 103317607.48649  80507237.98149  19660683.00849  19660682.79049  19660683.00449
 103317607.95849       816.00049       858.00049      1264.00049
 124585415.97247  97079557.01248  23707812.92148  23707812.79947  23707812.92848
 124585417.46648       171.00048        94.00047       199.00048
 109512973.69449  85334804.56649  20839618.19749  20839617.87249  20839617.76049
 109512976.19249       510.00049       799.00049      1094.00049
 118363094.12847  92230991.44448  22523746.14348  22523744.46947  22523744.26448
 118363103.61248       240.00048        52.00047       101.00048
 114516819.07247  89233889.66447  21791825.39548  21791824.24247  21791824.17447
 114516826.56848       321.00048        98.00047        99.00047
 112498987.29148  87661583.32148  21407837.00348  21407836.26748  21407839.10948
 112498990.78548       492.00048       157.00048       354.00048
 23 06 21 06 11 10.0000000  0 10 01 02 07 13 14 15 17 19 21 30
 115789377.15447  90225506.96748  22033983.07748  22033982.93247  22033985.81948
 115789376.65048       324.00048        76.00047       222.00048
 113696033.31048  88594323.44548  21635631.12148  21635629.94748  21635628.45548
 113696039.80748       392.00048       122.00048       221.00048
 126598908.54446  98648510.66247  24090969.39748  24090968.65146  24090969.97947
 126598911.04248       141.00048        23.00046        58.00047
 115231366.99647  89790681.43848  21927799.51748  21927798.61647  21927799.01248
 115231372.49248       336.00048        66.00047       119.00048
 103291424.95649  80486836.11449  19655700.52849  19655700.35649  19655700.52549
 103291425.43049       826.00049       885.00049      1282.00049
 124410997.40947  96943646.78748  23674622.02348  23674621.76647  23674621.86148
 124410998.90848       174.00048        97.00047       203.00048
 109715087.97649  85492296.22849  20878079.38249  20878078.92749  20878078.80249
 109715090.47449       503.00049       772.00049      1063.00049
 118617030.72847  92428864.14747  22572068.64348  22572067.21247  22572066.75847
 118617040.22248       234.00048        51.00047        96.00047
 114395145.83247  89139079.50648  21768671.56648  21768670.55447  21768670.43548
 114395153.33348       324.00048        98.00047       102.00048
 112796067.43448  87893074.37148  21464369.47248  21464368.70348  21464371.51648
 112796070.93048       477.00048       149.00048       344.00048
 23 06 21 06 11 20.0000000  0 10 01 02 07 13 14 15 17 19 21 30
 115811950.91147  90243097.04148  22038278.66648  22038278.45347  22038281.32448
 115811950.41448       323.00048        75.00047       218.00048
 113623553.22348  88537845.63648  21621838.46248  21621837.38548  21621835.75748
 113623559.72248       394.00048       124.00048       224.00048
 126973580.24346  98940462.61947  24162267.17048  24162266.18546  24162267.57747
 126973582.75248       138.00048        22.00046        56.00047
 115283141.46547  89831025.26748  21937651.79548  21937651.08247  21937651.25148
 115283146.96148       333.00048        64.00047       117.00048
 103271350.86249  80471194.10049  19651880.50849  19651880.29249  19651880.41149
 103271351.33749       834.00049       903.00049      1299.00049
 124240356.38047  96810680.09848  23642149.59848  23642149.42247  23642149.63248
 124240357.87948       176.00048        99.00047       207.00048
 109920689.12149  85652504.93949  20917203.84648  20917203.51949  20917203.36449
 109920691.61948       497.00048       755.00049      1034.00049
 118873214.67246  92628488.02747  22620818.81048  22620817.29446  22620817.03147
 118873224.16648       227.00048        49.00046        92.00047
 114275982.63547  89046225.26848  21745995.41548  21745994.33547  21745994.20948
 114275990.13048       328.00048        99.00047       102.00048
 113097787.27848  88128180.77048  21521784.73948  21521784.10148  21521786.89548
 113097790.77348       464.00048       140.00048       334.00048
 23 06 21 06 11 30.0000000  0 10 01 02 07 13 14 15 17 19 21 30
 115837305.75647  90262854.24248  22043103.36548  22043103.12747  22043106.01348
 115837305.26048       323.00048        75.00047       219.00048
 113553813.85848  88483503.55048  21608567.29148  21608566.20848  21608564.55548
 113553820.35448       397.00048       124.00048       227.00048
 127349908.04146  99233705.06047  24233879.88548  24233879.32646  24233880.43347
 127349910.55848       134.00048        22.00046        52.00047
 115340182.71747  89875473.13848  21948506.30548  21948505.62147  21948505.68748
 115340188.21448       331.00048        64.00047       115.00048
 103257390.85449  80460316.36749  19649223.79549  19649223.63549  19649223.71649
 103257391.33249       840.00049       918.00049      1314.00049
 124073531.92548  96680687.31648  23610403.88848  23610403.69548  23610403.64148
 124073533.42048       179.00048       104.00048       213.00048
 110129739.28949  85815401.22049  20956984.80348  20956984.39249  20956984.23549
 110129741.78548       489.00048       734.00049      1008.00049
 119131610.00246  92829835.07747  22669989.68548  22669988.32846  22669987.92747
 119131619.48548       221.00048        48.00046        88.00047
 114159346.94148  88955340.60048  21723800.19048  21723799.14148  21723798.97548
 114159354.44248       332.00048       105.00048       104.00048
 113404063.24248  88366837.41548  21580067.22848  21580066.47048  21580069.20948
 113404066.73548       450.00048       131.00048       331.00048
 23 06 21 06 11 40.0000000  0 10 01 02 07 13 14 15 17 19 21 30
 115865437.00047  90284775.00448  22048456.34748  22048456.06047  22048458.92648
 115865436.50448       323.00048        77.00047       218.00048
 113486825.63948  88431305.37648  21595819.58848  21595818.45048  21595816.74648
 113486832.13448       396.00048       125.00048       229.00048
 127727818.37946  99528180.67746  24305793.91348  24305793.09946  24305794.57146
 127727820.86748       130.00048        21.00046        50.00046
 115402474.76847  89924012.76848  21960359.80548  21960359.23247  21960359.10448
 115402480.25948       332.00048        63.00047       115.00048
 103249548.78149  80454205.99549  19647731.26749  19647731.09049  19647731.10449
 103249549.26049       844.00049       928.00049      1323.00049
 123910562.37848  96553698.33348  23579391.78148  23579391.35148  23579391.32248
 123910563.87448       180.00048       106.00048       215.00048
 110342200.25649  85980955.34649  20997414.62548  20997414.27749  20997414.09749
 110342202.75248       483.00048       711.00049       985.00049
 119392180.73646  93032877.31947  22719574.71048  22719573.19046  22719572.83947
 119392190.23448       216.00048        45.00046        81.00047
 114045255.80848  88866438.79248  21702089.15148  21702088.04048  21702087.62448
 114045263.30548       338.00048       105.00048       105.00048
 113714811.21948  88608978.79548  21639200.41448  21639199.79548  21639202.48248
 113714814.71148       437.00048       125.00048       320.00048
 23 06 21 06 11 50.0000000  0 10 01 02 07 13 14 15 17 19 21 30
 115896339.89547  90308855.88948  22054336.45348  22054336.25447  22054338.80148
 115896339.40048       323.00048        76.00047       217.00048
 113422597.88648  88381258.06548  21583597.11248  21583596.05648  21583594.26148
 113422604.38048       398.00048       123.00048       236.00048
 128107238.26746  99823832.77046  24377994.74048  24377993.79746  24377995.34146
 128107240.76348       126.00048        23.00046        49.00046
 115470000.63447  89976631.36648  21973208.75848  21973208.22647  21973207.77848
 115470006.12848       327.00048        63.00047       113.00048
 103247826.08349  80452863.91849  19647403.18449  19647403.05649  19647402.98649
 103247826.56449       842.00049       923.00049      1332.00049
 123751484.33748  96429741.22248  23549120.28748  23549119.95148  23549119.95448
 123751485.82648       182.00048       105.00048       221.00048
 110558033.51449  86149137.46849  21038486.08748  21038485.69749  21038485.41949
 110558036.01348       475.00048       692.00049       972.00049
 119654891.21246  93237587.08847  22769566.55748  22769565.18646  22769564.67347
 119654900.68548       210.00048        41.00046        78.00047
 113933725.64848  88779532.32248  21680865.59848  21680864.47548  21680864.11448
 113933733.13848       342.00048       110.00048       108.00048
 114029947.01548  88854539.47048  21699168.51248  21699167.87848  21699170.53648
 114029950.51248       425.00048       116.00048       313.00048
 23 06 21 06 12 00.0000000  0 10 01 02 07 13 14 15 17 19 21 30
 115930006.75347  90335089.86448  22060742.99448  22060742.73247  22060745.27048
 115930006.25648       323.00048        75.00047       218.00048
 113361139.45748  88333368.18748  21571902.18448  21571900.97748  21571899.27948
 113361145.95848       401.00048       125.00048       236.00048
 128488094.65146 100120604.27346  24450468.98648  24450468.63546  24450469.68246
 128488097.16148       124.00048        22.00046        44.00046
 115542738.18047  90033310.22748  21987049.99148  21987049.31747  21987048.92948
 115542743.66948       327.00048        63.00047       114.00048
 103252221.93949  80456289.11349  19648239.86849  19648239.65549  19648239.63049
 103252222.42149       842.00049       926.00049      1332.00049
 123596334.78748  96308845.03548  23519596.66348  23519596.14948  23519596.42948
 123596336.27848       184.00048       109.00048       224.00048
 110777199.46849  86319916.49749  21080191.68148  21080191.31449  21080190.96849
 110777201.96548       467.00048       667.00049       960.00049
 119919704.75046  93443935.70047  22819958.61148  22819956.96146  22819956.40847
 119919714.26148       206.00048        42.00046        73.00047
 113824772.72648  88694633.70348  21660132.75348  21660131.60048  21660131.16848
 113824780.22348       348.00048       115.00048       108.00048
 114349385.39948  89103452.79548  21759955.43648  21759954.74348  21759957.34748
 114349388.89148       412.00048       110.00048       305.00048
 23 06 21 06 12 10.0000000  0 10 01 02 07 13 14 15 17 19 21 30
 115966432.14747  90363473.04448  22067674.67048  22067674.38147  22067677.11348
 115966431.65348       322.00048        76.00047       215.00048
 113302460.17648  88287643.72348  21560736.12748  21560735.05148  21560733.32548
 113302466.67148       402.00048       128.00048       241.00048
 128870314.87146 100418438.37946  24523202.96048  24523203.25846  24523203.48046
 128870317.38148       120.00048        21.00046        44.00046
 115620666.79747  90094033.45648  22001879.56448  22001878.92547  22001878.65648
 115620672.28748       326.00048        63.00047       114.00048
 103262735.08149  80464480.97149  19650240.60249  19650240.38149  19650240.42249
 103262735.56649       842.00049       923.00049      1323.00049
 123445150.21248  96191038.50448  23490827.71348  23490827.13248  23490827.33448
 123445151.70548       186.00048       109.00048       228.00048
 110999657.97249  86493260.91149  21122523.96848  21122523.66049  21122523.28349
 110999660.47048       459.00048       644.00049       951.00049
 120186584.69746  93651894.29247  22870744.09048  22870742.45246  22870741.85047
 120186594.20348       200.00048        38.00046        71.00047
 113718413.87848  88611756.34848  21639893.49348  21639892.32748  21639892.09848
 113718421.37548       354.00048       117.00048       109.00048
 114673040.77748  89355651.89548  21821544.83448  21821544.17848  21821546.79548
 114673044.27248       399.00048       105.00048       297.00048
 23 06 21 06 12 20.0000000  0 10 01 02 07 13 14 15 17 19 21 30
 116005610.07147  90394000.92448  22075130.21048  22075129.85547  22075132.78248
 116005609.56748       322.00048        74.00047       215.00048
 113246569.69948  88244092.71548  21550100.42948  21550099.30948  21550097.73448
 113246576.19748       403.00048       128.00048       244.00048
 129253826.91946 100717278.93146  24596183.29948  24596182.76246  24596183.28146
 129253829.41648       117.00048        21.00046        40.00046
 115703765.83247  90158785.81048  22017692.95648  22017692.22347  22017692.05048
 115703771.33248       325.00048        63.00047       114.00048
 103279362.13849  80477437.11349  19653404.64349  19653404.40949  19653404.44549
 103279362.62449       843.00049       927.00049      1314.00049
 123297965.85848  96076349.33648  23462819.31048  23462818.88048  23462819.11648
 123297967.35048       189.00048       111.00048       233.00048
 111225369.20249  86669139.71849  21165475.49448  21165475.12349  21165474.76749
 111225371.69948       449.00048       615.00049       940.00049
 120455494.65146  93861434.50847  22921915.88948  22921914.24546  22921913.79147
 120455504.14048       195.00048        38.00046        67.00047
 113614665.57648  88530913.36648  21620150.94048  21620149.79748  21620149.65848
 113614673.07448       359.00048       117.00048       111.00048
 115000827.80447  89611070.27648  21883920.85548  21883920.03247  21883922.69648
 115000831.29648       388.00048        98.00047       288.00048
 23 06 21 06 12 30.0000000  0 10 01 02 07 13 14 15 17 19 21 30
 116047534.75047  90426669.57248  22083108.29148  22083107.92347  22083110.66848
 116047534.24948       322.00048        77.00047       212.00048
 113193475.41148  88202720.41648  21539997.12348  21539995.96348  21539994.37748
 113193481.91248       404.00048       129.00048       247.00048
 129638559.82246 101017070.85446  24669395.22448  24669394.22946  24669395.71946
 129638562.32048       113.00048        22.00046        37.00046
 115792011.40247  90227548.63548  22034485.41048  22034484.73247  22034484.62148
 115792016.90448       321.00048        58.00047       114.00048
 103302096.83749  80495152.39049  19657730.95449  19657730.75049  19657730.77649
 103302097.32549       845.00049       929.00049      1306.00049
 123154814.28348  95964802.21148  23435578.74948  23435578.33648  23435578.72648
 123154815.78248       191.00048       117.00048       241.00048
 111454293.62349  86847522.44149  21209038.31448  21209037.95049  21209037.57649
 111454296.11948       440.00048       591.00049       935.00049
 120726398.62846  94072528.60047  22973467.23948  22973465.72346  22973465.22047
 120726408.14048       190.00048        37.00046        64.00047
 113513543.44348  88452116.91048  21600908.11248  21600906.88748  21600906.73748
 113513550.94248       363.00048       121.00048       112.00048
 115332661.41147  89869641.93648  21947066.49148  21947065.86847  21947068.45748
 115332664.90648       378.00048        94.00047       277.00048
 23 06 21 06 12 40.0000000  0 10 01 02 07 13 14 15 17 19 21 30
 116092197.74147  90461471.74948  22091607.39048  22091607.24747  22091609.95148
 116092197.24148       323.00048        78.00047       213.00048
 113143185.76548  88163533.67748  21530427.27948  21530426.17748  21530424.57148
 113143192.26148       405.00048       129.00048       248.00048
 130024442.39746 101317758.52646  24742826.55748  24742824.62346  24742826.89246
 130024444.89748       111.00048        21.00046        38.00046
 115885378.03847  90300301.91848  22052252.43848  22052251.76547  22052251.64248
 115885383.52848       316.00048        59.00047       114.00048
 103330931.81049  80517621.21049  19663218.06249  19663217.86949  19663217.88449
 103330932.29949       844.00049       928.00049      1297.00049
 123015729.49148  95856424.10748  23409111.88048  23409111.63348  23409112.14148
 123015730.98448       194.00048       118.00048       248.00048
 111686390.13849  87028376.84749  21253204.75948  21253204.45149  21253204.10949
 111686392.63548       431.00048       569.00049       926.00049
 120999259.95446  94285147.80747  23025390.95948  23025389.08746  23025388.77547
 120999269.44548       186.00048        35.00046        62.00047
 113415062.41048  88375378.45848  21582167.71248  21582166.61548  21582166.38848
 113415069.90948       367.00048       124.00048       114.00048
 115668455.44747  90131299.58148  22010966.11848  22010965.30347  22010968.03548
 115668458.94448       368.00048        89.00047       265.00048
 23 06 21 06 12 50.0000000  0 10 01 02 07 13 14 15 17 19 21 30
 116139592.19447  90498402.50748  22100626.29448  22100625.96147  22100628.79248
 116139591.68948       323.00048        75.00047       215.00048
 113095707.55748  88126537.39548  21521392.63948  21521391.48548  21521390.01848
 113095714.05248       408.00048       131.00048       252.00048
 130411404.46546 101619287.37646  24816462.63148  24816461.26746  24816463.17646
 130411406.95548       107.00048        20.00046        33.00046
 115983838.43647  90377024.12148  22070989.01448  22070988.49547  22070988.22548
 115983843.93048       313.00048        58.00047       114.00048
 103365857.12049  80544835.62949  19669864.19849  19669864.02149  19669864.06049
 103365857.61049       842.00049       919.00049      1285.00049
 122880742.91948  95751239.28348  23383425.26448  23383424.97848  23383425.53448
 122880744.41448       197.00048       124.00048       257.00048
 111921617.99849  87211671.34549  21297967.19048  21297966.78349  21297966.43649
 111921620.49448       424.00048       548.00049       921.00049
 121274042.28646  94499263.96247  23077680.25948  23077678.44846  23077677.92647
 121274051.77548       181.00048        33.00046        60.00047
 113319236.52448  88300708.48048  21563932.94348  21563931.85348  21563931.81248
 113319244.02348       370.00048       128.00048       116.00048
 116008124.26047  90395976.57848  22075602.89548  22075602.16047  22075604.92748
 116008127.75148       360.00048        85.00047       253.00048
 23 06 21 06 13 00.0000000  0  9 01 02 07 14 15 17 19 21 30
 116189709.15047  90537454.36848  22110163.38948  22110163.20047  22110166.05848
 116189708.65048       325.00048        76.00047       216.00048
 113051048.21948  88091737.49148  21512894.57448  21512893.45948  21512892.01048
 113051054.71448       411.00048       133.00048       254.00048
 130799375.77246 101921602.54346  24890291.37848  24890290.13646  24890291.50546
 130799378.24848       105.00048        20.00046        31.00046
 103406861.15449  80576786.48849  19677667.19449  19677667.05649  19677667.15749
 103406861.64649       836.00049       903.00049      1268.00049
 122749885.73148  95649272.05548  23358524.25848  23358524.06748  23358524.81548
 122749887.22548       202.00048       131.00048       260.00048
 112159935.53649  87397373.24149  21343317.53448  21343317.15149  21343316.82649
 112159938.03348       415.00048       528.00049       907.00049
 121550708.70546  94714848.15547  23130328.27348  23130326.39246  23130326.21447
 121550718.22648       175.00048        33.00046        59.00047
 113226081.26348  88228119.43148  21546206.54348  21546205.47348  21546205.41048
 113226088.76148       375.00048       129.00048       115.00048
 116351581.50447  90663605.51148  22140960.75548  22140960.04947  22140962.69548
 116351584.99348       353.00048        80.00047       242.00048
 23 06 21 06 13 10.0000000  0  7 01 07 15 17 19 21 30
 116242540.24047  90578620.79848  22120217.28148  22120217.18347  22120220.11848
 116242539.74148       325.00048        77.00047       216.00048
 131188286.67046 102224649.65246  24964298.72648  24964297.14046  24964299.26346
 131188289.16248       102.00048        20.00046        30.00046
 122623189.39448  95550547.63248  23334414.99348  23334414.69048  23334415.41648
 122623190.89148       206.00048       136.00048       270.00048
 112401300.98849  87585449.89449  21389248.06348  21389247.73949  21389247.46749
 112401303.48648       409.00048       511.00049       896.00049
 121829222.32746  94931871.44347  23183327.60548  23183326.26646  23183325.60447
 121829231.82648       172.00048        31.00046        56.00047
 113135611.47348  88157623.19448  21528990.93548  21528989.82948  21528989.89348
 113135618.97148       379.00048       132.00048       120.00048
 116698740.84347  90934118.97748  22207023.19448  22207022.46747  22207025.26448
 116698744.33848       345.00048        78.00047       230.00048
 23 06 21 06 13 20.0000000  0  7 01 07 15 17 19 21 30
 116298078.22647  90621896.87648  22130786.12748  22130785.95847  22130788.90348
 116298077.71648       326.00048        77.00047       218.00048
 131578068.60546 102528375.43246  25038471.76347  25038470.57046  25038472.72046
 131578071.07947        99.00047        21.00046        28.00046
 122500682.93548  95455088.59948  23311102.51548  23311102.10148  23311102.58848
 122500684.42748       209.00048       141.00048       275.00048
 112645673.08648  87775869.43449  21435750.81748  21435750.40348  21435750.18449
 112645675.58348       402.00048       493.00048       879.00049
 122109546.90746  95150305.85847  23236671.69948  23236670.40146  23236670.01647
 122109556.39048       168.00048        29.00046        54.00047
 113047842.04648  88089231.79248  21512288.65448  21512287.60348  21512287.58748
 113047849.54448       383.00048       135.00048       120.00048
 117049516.69747  91207450.54948  22273773.84548  22273772.93447  22273775.94348
 117049520.18748       338.00048        76.00047       218.00048
 23 06 21 06 13 30.0000000  0  7 01 07 15 17 19 21 30
 116356314.30347  90667275.92948  22141867.81348  22141867.63147  22141870.60048
 116356313.80748       328.00048        77.00047       219.00048
 131968653.36546 102832726.87146  25112798.11247  25112796.85146  25112798.89446
 131968655.83647        97.00047        19.00046        27.00046
 122382392.17848  95362914.03348  23288592.21848  23288591.98548  23288592.53048
 122382393.67248       214.00048       147.00048       281.00048
 112893010.16048  87968599.59249  21482817.47248  21482817.08348  21482816.89249
 112893012.65748       395.00048       478.00048       864.00049
 122391646.15646  95370123.33347  23290353.75848  23290352.21946  23290351.91747
 122391655.66048       163.00048        29.00046        53.00047
 112962783.88448  88022952.34148  21496102.87148  21496101.86648  21496101.93348
 112962791.38548       387.00048       139.00048       124.00048
 117403823.21347  91483533.44648  22341196.05048  22341195.39047  22341198.30148
 117403826.70448       331.00048        73.00047       209.00048
 23 06 21 06 13 40.0000000  0  6 01 07 15 17 19 30
 116417236.86047  90714747.77948  22153461.22948  22153460.90747  22153464.03348
 116417236.36048       328.00048        78.00047       222.00048
 132359972.73146 103137650.63946  25187263.75547  25187262.99446  25187265.15946
 132359975.21847        93.00047        20.00046        26.00046
 122268344.91048  95274046.00948  23266889.76948  23266889.51848  23266890.08748
 122268346.40648       219.00048       150.00048       288.00048
 113143269.07248  88163606.38049  21530440.34148  21530439.91848  21530439.73849
 113143271.56948       389.00048       463.00048       842.00049
 122675482.78346  95591294.48346  23344366.20948  23344364.61646  23344364.57546
 122675492.28748       160.00048        28.00046        50.00046
 117761573.96647  91762300.13848  22409274.02748  22409273.19247  22409276.12448
 117761577.45048       321.00048        69.00047       199.00048
 23 06 21 06 13 50.0000000  0  6 01 07 15 17 19 30
 116480837.78447  90764306.97348  22165564.00048  22165563.92547  22165566.86848
 116480837.28548       330.00048        78.00047       224.00048
 132751959.91246 103443094.94046  25261856.62447  25261855.86946  25261857.83446
 132751962.40947        91.00047        20.00046        24.00046
 122158567.85548  95188505.68848  23245999.67448  23245999.50548  23245999.93348
 122158569.35248       222.00048       156.00048       292.00048
 113396407.72648  88360857.20749  21578611.05348  21578610.67148  21578610.48449
 113396410.22348       383.00048       448.00048       823.00049
 122961020.66146  95813791.40046  23398702.41348  23398700.69646  23398700.76746
 122961030.16248       154.00048        29.00046        49.00046
 118122683.11147  92043683.79148  22477990.92648  22477990.05847  22477993.01048
 118122686.60448       313.00048        65.00047       187.00048
 23 06 21 06 14 00.0000000  0  6 01 07 15 17 19 30
 116547105.70647  90815944.04248  22178174.62348  22178174.33047  22178177.46748
 116547105.20748       331.00048        78.00047       225.00048
 133144547.75646 103749007.31646  25336564.20247  25336562.97046  25336564.84746
 133144550.26047        88.00047        20.00046        23.00046
 122053084.26748  95106310.43548  23225927.04548  23225926.81748  23225927.35848
 122053085.76148       226.00048       163.00048       292.00048
 113652383.20448  88560318.54249  21627321.61648  21627321.22748  21627321.06949
 113652385.69948       378.00048       434.00048       806.00049
 123248222.86346  96037585.18846  23453355.45248  23453353.58846  23453353.60746
 123248232.38448       151.00048        26.00046        47.00046
 118487064.77347  92327617.43848  22547330.41448  22547329.70447  22547332.75448
 118487068.26348       303.00048        62.00047       179.00048
 23 06 21 06 14 10.0000000  0  7 01 02 07 15 17 19 30
 116616031.01447  90869651.95848  22191290.70048  22191290.42547  22191293.73548
 116616030.51148       331.00048        79.00047       228.00048
 112817859.85958  87910015.43158  21468526.13748  21468524.99548  21468523.80448
 112817865.35558       432.00048       144.00048       265.00048
 133537669.66546 104055335.70246  25411372.84347  25411371.89846  25411374.38446
 133537672.18447        85.00047        18.00046        21.00046
 121951919.29548  95027480.51848  23206676.09448  23206675.81648  23206676.34248
 121951920.79048       231.00048       168.00048       296.00048
 113911152.28448  88761956.56749  21676563.85848  21676563.49248  21676563.41649
 113911154.78348       372.00048       420.00048       785.00049
 123537052.53346  96262647.03846  23508317.99148  23508316.61046  23508316.47046
 123537062.05848       146.00048        27.00046        46.00046
 118854633.10647  92614034.16448  22617276.56448  22617275.69647  22617278.71948
 118854636.60848       293.00048        57.00047       171.00048
 23 06 21 06 14 20.0000000  0  8 01 02 07 14 15 17 19 30
 116687602.42547  90925421.74548  22204910.53848  22204910.23747  22204913.41848
 116687601.93148       331.00048        79.00047       228.00048
 112795962.33448  87892952.42548  21464359.11248  21464358.01748  21464356.88848
 112795967.82848       433.00048       147.00048       272.00048
 133931260.03346 104362028.98546  25486271.36747  25486270.29246  25486272.05346
 133931262.53347        82.00047        19.00046        20.00046
 103951753.64159  81001367.86159  19781361.18949  19781361.00949  19781361.38849
 103951754.13959       778.00049       772.00049      1135.00049
 121855095.19748  94952033.08748  23188251.11548  23188250.87148  23188251.40948
 121855096.69348       235.00048       175.00048       297.00048
 114172672.19248  88965738.13649  21726329.51748  21726329.18448  21726329.16649
 114172674.68748       365.00048       404.00048       767.00049
 123827473.25246  96488948.68046  23563583.21948  23563581.59046  23563581.69846
 123827482.75148       142.00048        22.00046        45.00046
 119225302.66647  92902867.40048  22687812.71248  22687812.01747  22687815.05548
 119225306.16548       282.00048        52.00047       163.00048
 23 06 21 06 14 30.0000000  0  8 01 02 07 14 15 17 19 30
 116761808.88747  90983244.84048  22219031.49048  22219031.33547  22219034.57448
 116761808.37848       330.00048        78.00047       232.00048
 112776929.86548  87878121.97748  21460737.35048  21460736.19848  21460735.11348
 112776935.36148       434.00048       148.00048       275.00048
 134325253.98846 104669036.87846  25561246.23447  25561244.99646  25561247.41846
 134325256.50347        80.00047        20.00046        19.00046
 104046656.33749  81075318.07349  19799420.51849  19799420.34849  19799420.73349
 104046656.83649       771.00049       758.00049      1104.00049
 121762633.81648  94879985.31248  23170656.27148  23170656.04948  23170656.54748
 121762635.31048       241.00048       182.00048       299.00048
 114436899.32948  89171629.12549  21776610.50248  21776610.15948  21776610.20449
 114436901.82748       359.00048       393.00048       751.00049
 124119447.97346  96716461.12846  23619144.78948  23619142.68746  23619143.08246
 124119457.47348       138.00048        24.00046        43.00046
 119598987.94046  93194050.43248  22758922.96948  22758921.99246  22758925.23548
 119598991.43648       271.00048        49.00046       158.00048
 23 06 21 06 14 40.0000000  0  9 01 02 07 13 14 15 17 19 30
 116838638.73347  91043112.15348  22233651.94848  22233651.62947  22233654.94448
 116838638.23548       328.00048        75.00047       231.00048
 112760765.09748  87865525.99948  21457661.33448  21457660.27148  21457659.11348
 112760770.59448       436.00048       150.00048       275.00048
 134719586.71246 104976308.64046  25636285.89547  25636284.01146  25636286.08946
 134719589.20447        77.00047        20.00046        19.00046
 117394113.14156  91475934.30157  22339357.93148  22339357.01146  22339357.54747
 117394117.63458       289.00048        49.00046        82.00047
 104147424.40849  81153838.59249  19818596.13749  19818595.91549  19818596.28149
 104147424.90649       767.00049       750.00049      1067.00049
 121674555.74848  94811353.34048  23153895.38148  23153895.17448  23153895.54248
 121674557.24348       245.00048       186.00048       301.00048
 114703790.50448  89379596.05149  21827398.45748  21827398.03948  21827398.11549
 114703793.00048       352.00048       381.00048       734.00049
 124412940.28446  96945155.97446  23674994.60848  23674992.79646  23674993.24746
 124412949.78848       135.00048        24.00046        42.00046
 119975603.98846  93487517.13148  22830590.67548  22830590.13746  22830593.18848
 119975607.47148       260.00048        45.00046       152.00048
 23 06 21 06 14 50.0000000  0 10 01 02 07 13 14 15 17 19 21 30
 116918080.49047  91105014.91048  22248769.16048  22248768.86547  22248772.08848
 116918079.99448       327.00048        77.00047       234.00048
 112747471.26348  87855167.35648  21455131.48848  21455130.33648  21455129.15948
 112747476.76348       436.00048       148.00048       276.00048
 135114194.08146 105283794.44746  25711377.27947  25711375.04146  25711378.56046
 135114196.58747        73.00047        19.00046        20.00046
 117551130.52446  91598285.43147  22369237.36248  22369236.73646  22369237.09947
 117551135.02148       285.00048        49.00046        81.00047
 104254027.58149  81236906.13049  19838881.88849  19838881.73749  19838882.07149
 104254028.07949       762.00049       736.00049      1026.00049
 121590879.29448  94746150.95148  23137972.18748  23137971.99848  23137972.37548
 121590880.79248       249.00048       195.00048       306.00048
 114973302.19148  89589604.99549  21878684.89848  21878684.53648  21878684.65649
 114973304.68848       346.00048       364.00048       718.00049
 124707914.41546  97175005.73846  23731126.42648  23731124.72146  23731125.20946
 124707923.91848       130.00048        22.00046        38.00046
 112381486.63658  87569989.98158  21385486.97648  21385485.93448  21385485.96548
 112381492.13158       413.00048       158.00048       149.00048
 120355066.55246  93783202.14848  22902800.35448  22902799.51246  22902802.65148
 120355070.03748       250.00048        41.00046       148.00048
 23 06 21 06 15 00.0000000  0 10 01 02 07 13 14 15 17 19 21 30
 117000121.11347  91168942.52548  22264381.03148  22264380.62947  22264384.07248
 117000120.61048       327.00048        76.00047       234.00048
 112737049.70048  87847046.64748  21453148.30848  21453147.21148  21453146.02248
 112737055.19748       437.00048       150.00048       279.00048
 135509012.38246 105591444.44446  25786509.18047  25786506.28546  25786510.51446
 135509014.85947        70.00047        20.00046        18.00046
 117712774.80846  91724241.96947  22399997.21948  22399996.57346  22399996.99947
 117712779.29448       284.00048        47.00046        80.00047
 104366432.52549  81324494.32449  19860271.92649  19860271.75949  19860272.10149
 104366433.02349       755.00049       721.00049       988.00049
 121511622.61748  94684392.32748  23122890.31848  23122890.11548  23122890.53648
 121511624.11448       251.00048       198.00048       309.00048
 115245390.59948  89801621.85849  21930461.55348  21930461.29248  21930461.41849
 115245393.09748       340.00048       353.00048       701.00049
 125004333.34546  97405981.29546  23787533.44048  23787531.28446  23787531.98346
 125004342.86848       127.00048        24.00046        37.00046
 112321395.35148  87523165.38948  21374052.18648  21374051.07248  21374051.25148
 112321400.84748       415.00048       159.00048       152.00048
 120737290.45246  94081038.77648  22975535.08948  22975534.03046  22975537.62248
 120737293.92548       242.00048        39.00046       144.00048
 23 06 21 06 15 10.0000000  0 10 01 02 07 13 14 15 17 19 21 30
 117084748.58747  91234885.94648  22280485.04448  22280484.94247  22280488.22048
 117084748.09148       324.00048        77.00047       234.00048
 112729502.40448  87841165.58348  21451712.10648  21451711.08348  21451709.85448
 112729507.90348       439.00048       152.00048       281.00048
 135903978.71146 105899209.76046  25861668.89347  25861666.61746  25861670.49546
 135903981.21947        68.00047        18.00046        17.00046
 117879001.80646  91853769.54847  22431629.23348  22431628.25246  22431628.77547
 117879006.31148       281.00048        46.00046        79.00047
 104484605.82349  81416577.48049  19882759.53349  19882759.34749  19882759.63649
 104484606.32149       747.00049       705.00049       946.00049
 121436803.19748  94626091.35848  23108652.69748  23108652.52048  23108652.91548
 121436804.69148       254.00048       202.00048       314.00048
 115520011.86248  90015612.42349  21982720.45448  21982720.00148  21982720.15449
 115520014.36248       334.00048       339.00048       686.00049
 125302160.78046  97638054.42846  23844208.04448  23844206.25146  23844206.75746
 125302170.27148       124.00048        22.00046        37.00046
 112264132.89848  87478545.21048  21363155.56648  21363154.47148  21363154.70548
 112264138.39648       419.00048       160.00048       153.00048
 121122191.49046  94380961.48148  23048779.43048  23048778.67746  23048782.04248
 121122194.99448       232.00048        37.00046       143.00048
 23 06 21 06 15 20.0000000  0 10 01 02 07 13 14 15 17 19 21 30
 117171950.20947  91302835.36848  22297078.93648  22297078.60547  22297081.95048
 117171949.71248       324.00048        74.00047       234.00048
 112724831.24248  87837525.89048  21450823.19548  21450822.01548  21450820.83848
 112724836.73548       441.00048       151.00048       285.00048
 136299030.92446 106207042.04846  25936845.58847  25936842.84846  25936847.80846
 136299033.43847        66.00047        18.00046        18.00046
 118049765.96446  91986832.51347  22464124.50448  22464123.83846  22464124.16547
 118049770.44948       279.00048        45.00046        77.00047
 104608511.27549  81513127.17049  19906337.96649  19906337.75749  19906338.06049
 104608511.77349       738.00049       686.00049       912.00049
 121366436.53348  94571260.02348  23095262.46048  23095262.34848  23095262.82648
 121366438.03048       255.00048       205.00048       320.00048
 115797121.99848  90231542.36849  22035452.74448  22035452.34748  22035452.50149
 115797124.49648       327.00048       325.00048       670.00049
 125601359.95946  97871196.48146  23901143.83448  23901142.39346  23901142.58346
 125601369.44948       121.00048        23.00046        36.00046
 112209708.87148  87436137.04248  21352798.83848  21352797.75348  21352797.94148
 112209714.36948       423.00048       164.00048       156.00048
 121509686.11046  94682905.28848  23122517.34748  23122516.38646  23122519.97448
 121509689.61748       226.00048        36.00046       141.00048
 23 06 21 06 15 30.0000000  0 10 01 02 07 13 14 15 17 19 21 30
 117261712.46247  91372780.08948  22314160.04648  22314159.78847  22314163.11548
 117261711.96748       321.00048        75.00047       231.00048
 112723036.17948  87836127.07348  21450481.57248  21450480.48548  21450479.26148
 112723041.67148       444.00048       155.00048       286.00048
 136694106.83046 106514892.65846  26012026.59547  26012023.91946  26012027.83946
 136694109.33147        63.00047        20.00046        17.00046
 118225020.86246  92123394.79947  22497474.30448  22497473.69346  22497474.09047
 118225025.35948       276.00048        46.00046        76.00047
 104738111.91149  81614114.70449  19931000.06749  19930999.91849  19931000.22649
 104738112.40949       732.00049       672.00049       878.00049
 121300537.61448  94519910.21448  23082722.26648  23082722.09948  23082722.66748
 121300539.11148       258.00048       207.00048       325.00048
 116076676.91548  90449377.31649  22088650.18448  22088649.93948  22088650.09849
 116076679.41148       320.00048       312.00048       649.00049
 125901894.50546  98105379.05846  23958334.05648  23958332.53146  23958332.65746
 125901904.01448       117.00048        21.00046        33.00046
 112158131.57948  87395946.94648  21342984.08148  21342982.90548  21342983.07648
 112158137.07648       427.00048       166.00048       157.00048
 121899690.22546  94986804.40948  23196732.72748  23196731.87346  23196735.38348
 121899693.71948       221.00048        35.00046       141.00048
 23 06 21 06 15 40.0000000  0 10 01 02 07 13 14 15 17 19 21 30
 117354021.56547  91444709.24548  22331725.91548  22331725.72347  22331728.93948
 117354021.06948       319.00048        72.00047       229.00048
 112724118.29348  87836970.33348  21450687.47248  21450686.41848  21450685.16848
 112724123.78948       446.00048       155.00048       291.00048
 137089145.30846 106822714.02346  26087200.10547  26087197.32046  26087201.66146
 137089147.79047        61.00047        18.00046        17.00046
 118404718.64346  92263418.85447  22531669.87148  22531669.03946  22531669.73247
 118404723.14248       273.00048        44.00046        75.00047
 104873368.83249  81719509.70249  19956738.64249  19956738.44249  19956738.75549
 104873369.33049       725.00049       665.00049       851.00049
 121239118.93448  94472051.22448  23071035.00148  23071034.68048  23071035.36348
 121239120.42948       258.00048       210.00048       331.00048
 116358632.59448  90669082.98349  22142304.79448  22142304.36248  22142304.50849
 116358635.09148       314.00048       298.00048       630.00049
 126203728.16346  98340573.84646  24015770.91748  24015769.44946  24015770.48646
 126203737.67348       114.00048        20.00046        32.00046
 112109409.91048  87357981.97848  21333712.68548  21333711.57948  21333711.68548
 112109415.40748       431.00048       167.00048       160.00048
 122292121.05246  95292594.57448  23271409.93148  23271409.16246  23271412.55548
 122292124.54548       216.00048        35.00046       138.00048
 23 06 21 06 15 50.0000000  0 10 01 02 07 13 14 15 17 19 21 30
 117448863.23247  91518611.47748  22349773.90148  22349773.75747  22349777.08048
 117448862.73248       317.00048        70.00047       228.00048
 112728076.91348  87840054.77148  21451440.97548  21451439.85348  21451438.64848
 112728082.41148       447.00048       157.00048       291.00048
 137484085.47546 107130458.70346  26162355.16747  26162352.46546  26162357.54946
 137484087.93947        59.00047        18.00046        16.00046
 118588811.35146  92406867.56647  22566701.62848  22566700.97446  22566701.35747
 118588815.84948       269.00048        44.00046        75.00047
 105014241.47349  81829280.41149  19983545.94649  19983545.77649  19983546.10549
 105014241.97149       722.00049       658.00049       826.00049
 121182193.03348  94427693.00848  23060202.70548  23060202.35748  23060203.10748
 121182194.52848       261.00048       211.00048       337.00048
 116642944.65448  90890624.67149  22196407.74148  22196407.22948  22196407.45649
 116642947.15148       307.00048       283.00048       611.00049
 126506824.87346  98576752.77146  24073448.81648  24073446.38246  24073447.73946
 126506834.34048       112.00048        21.00046        33.00046
 112063551.96248  87322248.38548  21324986.35748  21324985.18348  21324985.37448
 112063557.45948       435.00048       171.00048       162.00048
 122686895.34346  95600210.68848  23346533.08248  23346532.33946  23346535.79548
 122686898.82048       211.00048        31.00046       135.00048
 23 06 21 06 16 00.0000000  0  9 01 02 13 14 15 17 19 21 30
 117546224.88747  91594477.76348  22368301.18248  22368301.07147  22368304.29948
 117546224.38448       315.00048        72.00047       224.00048
 112734912.27248  87845380.89948  21452741.75548  21452740.69348  21452739.51448
 112734917.76848       449.00048       157.00048       295.00048
 118777249.87746  92553702.75147  22602560.33348  22602559.69146  22602560.13347
 118777254.37848       263.00048        41.00046        70.00047
 105160688.54149  81943394.84049  20011414.07849  20011413.86849  20011414.23849
 105160689.04049       721.00049       653.00049       806.00049
 121129770.66648  94386843.87248  23050227.31348  23050227.10648  23050227.97048
 121129772.16148       263.00048       216.00048       342.00048
 116929569.21448  91113968.31949  22250950.65848  22250950.23248  22250950.50149
 116929571.71248       297.00048       270.00048       593.00049
 126811148.17746  98813887.35446  24131360.09848  24131357.60346  24131359.14746
 126811157.66148       108.00048        20.00046        29.00046
 112020565.80748  87288752.53648  21316806.40848  21316805.30848  21316805.53248
 112020571.30548       438.00048       175.00048       163.00048
 123083930.86446  95909588.78848  23422086.68348  23422085.68546  23422089.40448
 123083934.36548       206.00048        31.00046       133.00048
 23 06 21 06 16 10.0000000  0  9 01 02 13 14 15 17 19 21 30
 117646090.84047  91672295.24748  22387305.09648  22387304.99147  22387308.23948
 117646090.32548       314.00048        69.00047       222.00048
 112744623.76948  87852948.36448  21454589.79848  21454588.58748  21454587.46748
 112744629.26448       449.00048       157.00048       296.00048
 118969982.62146  92703883.56747  22639236.57648  22639235.59046  22639236.44247
 118969987.11248       258.00048        41.00046        69.00047
 105312666.79949  82061819.22649  20040334.70349  20040334.54249  20040334.94749
 105312667.29649       719.00049       649.00049       779.00049
 121081862.21948  94349512.23348  23041111.01648  23041110.76048  23041111.68148
 121081863.71448       265.00048       218.00048       346.00048
 117218461.93448  91339079.33349  22305925.09748  22305924.82948  22305925.14049
 117218464.43148       289.00048       253.00048       577.00049
 127116662.69746  99051950.31346  24189497.71048  24189495.59546  24189496.66546
 127116672.18548       104.00048        21.00046        29.00046
 111980458.68148  87257500.03248  21309174.52748  21309173.33048  21309173.62648
 111980464.18048       441.00048       178.00048       165.00048
 123483145.52246  96220664.75348  23498055.16548  23498054.35246  23498057.80748
 123483148.99748       202.00048        30.00046       134.00048
 23 06 21 06 16 20.0000000  0  9 01 02 13 14 15 17 19 21 30
 117748447.25347  91752053.61648  22406782.95748  22406782.67147  22406785.98148
 117748446.75448       311.00048        67.00047       220.00048
 112757209.21848  87862755.01248  21456984.83348  21456983.74748  21456982.62748
 112757214.71648       452.00048       161.00048       297.00048
 119166959.59846  92857371.68047  22676720.47648  22676719.41246  22676720.31847
 119166964.09248       254.00048        39.00046        67.00047
 105470132.16349  82184519.40649  20070299.47549  20070299.29149  20070299.71149
 105470132.65949       718.00049       642.00049       752.00049
 121038476.73548  94315705.42948  23032855.00448  23032854.76948  23032855.66148
 121038478.23448       268.00048       226.00048       352.00048
 117509578.64048  91565923.28849  22361322.90448  22361322.61648  22361323.01649
 117509581.13748       281.00048       241.00048       557.00049
 127423331.66346  99290912.55546  24247855.16648  24247853.43946  24247854.59046
 127423341.17848       102.00048        20.00046        28.00046
 111943238.16148  87228497.04048  21302091.60548  21302090.54348  21302090.69648
 111943243.65848       444.00048       180.00048       168.00048
 123884458.04146  96533375.48048  23574422.49048  23574421.66446  23574425.36248
 123884461.53748       197.00048        31.00046       130.00048
 23 06 21 06 16 30.0000000  0  9 01 02 13 14 15 17 19 21 30
 117853278.66647  91833740.56348  22426731.40848  22426731.25447  22426734.58348
 117853278.16648       310.00048        69.00047       215.00048
 112772667.76448  87874800.65648  21459926.46548  21459925.38148  21459924.23848
 112772673.26048       453.00048       159.00048       301.00048
 119368129.25646  93014127.11747  22715001.64048  22715001.03346  22715001.84547
 119368133.74448       250.00048        39.00046        65.00047
 105633038.63849  82311459.47149  20101299.55649  20101299.41449  20101299.83949
 105633039.13549       713.00049       635.00049       726.00049
 120999621.01348  94285428.51748  23025460.83248  23025460.54048  23025461.34548
 120999622.51048       272.00048       229.00048       357.00048
 117802874.84248  91794465.42449  22417135.68448  22417135.24648  22417135.78649
 117802877.33748       273.00048       225.00048       542.00049
 127731119.66746  99530746.72846  24306425.55547  24306423.80946  24306425.27546
 127731129.15847        98.00047        20.00046        27.00046
 111908910.28148  87201748.03548  21295559.20348  21295558.06548  21295558.33048
 111908915.77748       446.00048       181.00048       170.00048
 124287787.55746  96847657.97248  23651173.85348  23651172.68346  23651176.74448
 124287791.04348       193.00048        30.00046       128.00048
 23 06 21 06 16 40.0000000  0  9 01 02 13 14 15 17 19 21 30
 117960569.34047  91917343.63248  22447148.26648  22447148.07447  22447151.36548
 117960568.84148       308.00048        66.00047       216.00048
 112790996.98548  87889083.18448  21463414.35048  21463413.39048  21463412.17748
 112791002.48348       454.00048       161.00048       302.00048
 119573437.49546  93174107.09247  22754071.14948  22754070.17046  22754071.13947
 119573441.98748       245.00048        36.00046        65.00047
 105801339.34449  82442603.00149  20133326.02949  20133325.86449  20133326.25849
 105801339.84049       706.00049       624.00049       700.00049
 120965300.55348  94258685.51448  23018929.73348  23018929.41348  23018930.17548
 120965302.05148       275.00048       236.00048       360.00048
 118098306.93248  92024672.09149  22473354.59448  22473354.22148  22473354.79349
 118098309.42948       265.00048       215.00048       524.00049
 128039991.41346  99771425.66846  24365202.10147  24365200.51946  24365201.64046
 128040000.91847        95.00047        19.00046        26.00046
 111877481.22048  87177257.84048  21289578.44048  21289577.43648  21289577.65448
 111877486.72048       448.00048       181.00048       170.00048
 124693053.32946  97163449.27048  23728293.57848  23728292.52246  23728296.32548
 124693056.79748       188.00048        27.00046       123.00048
 23 06 21 06 16 50.0000000  0  9 01 02 13 14 15 17 19 21 30
 118070304.55047  92002851.77248  22468029.97848  22468029.72347  22468033.12548
 118070304.05048       308.00048        67.00047       217.00048
 112812194.61248  87905600.96048  21467448.04448  21467446.94248  21467445.76448
 112812200.10848       457.00048       164.00048       304.00048
 119782832.26446  93337271.83647  22793917.54848  22793916.80146  22793917.68647
 119782836.76648       241.00048        37.00046        62.00047
 105974985.66349  82577911.99749  20166369.69449  20166369.49849  20166369.89249
 105974986.15949       702.00049       614.00049       671.00049
 120935520.77948  94235481.00348  23013262.37148  23013262.22248  23013262.82548
 120935522.27548       279.00048       239.00048       365.00048
 118395830.63748  92256508.74749  22529971.62148  22529971.12348  22529971.66749
 118395833.13348       258.00048       202.00048       513.00049
 128349910.98946 100012921.19946  24424178.37747  24424176.12446  24424177.85846
 128349920.49547        93.00047        20.00046        25.00046
 111848957.29648  87155031.64448  21284150.37448  21284149.28648  21284149.43948
 111848962.79548       449.00048       185.00048       170.00048
 125100175.43046  97480687.26148  23805766.23248  23805765.43846  23805769.23648
 125100178.94248       185.00048        28.00046       121.00048
 23 06 21 06 17 00.0000000  0  9 01 02 13 14 15 17 19 21 30
 118182466.93147  92090250.72448  22489374.01148  22489373.84247  22489377.23248
 118182466.43448       307.00048        67.00047       213.00048
 112836257.15148  87924351.01548  21472026.96948  21472025.88548  21472024.67548
 112836262.64948       458.00048       163.00048       305.00048
 119996258.26046  93503577.80347  22834531.12248  22834530.54546  22834531.50647
 119996262.75748       238.00048        35.00046        63.00047
 106153927.40449  82717347.07749  20200421.23249  20200421.02849  20200421.39349
 106153927.90049       696.00049       599.00049       645.00049
 120910283.83948  94215815.96648  23008459.93548  23008459.70648  23008460.24648
 120910285.33548       279.00048       242.00048       371.00048
 118695401.30948  92489940.42548  22586977.92348  22586977.51248  22586978.09348
 118695403.80548       251.00048       193.00048       497.00048
 128660842.43746 100255205.09346  24483346.88947  24483344.52646  24483346.37046
 128660851.92847        90.00047        20.00046        23.00046
 111823343.17948  87135072.82048  21279276.01248  21279274.95348  21279275.10948
 111823348.67848       451.00048       185.00048       173.00048
 125509073.86646  97799309.26848  23883577.09348  23883576.27646  23883580.15548
 125509077.35848       179.00048        29.00046       113.00048
 23 06 21 06 17 10.0000000  0  9 01 02 13 14 15 17 19 21 30
 118297042.55047  92179530.70248  22511176.96248  22511176.64647  22511179.94548
 118297042.05948       306.00048        68.00047       214.00048
 112863181.92148  87945331.58248  21477150.47848  21477149.29148  21477148.10548
 112863187.41848       460.00048       165.00048       307.00048
 120213660.50746  93672982.22947  22875901.43248  22875900.47346  22875901.60347
 120213665.00848       235.00048        35.00046        61.00047
 106338114.41449  82860869.46449  20235470.82849  20235470.62249  20235470.96349
 106338114.90849       693.00049       593.00049       621.00049
 120889593.52148  94199694.07648  23004522.33548  23004522.13348  23004522.61948
 120889595.01648       281.00048       245.00048       378.00048
 118996974.81948  92724932.74048  22644365.43548  22644365.13648  22644365.62548
 118996977.31448       245.00048       181.00048       483.00048
 128972750.57946 100498250.13546  24542701.23947  24542698.66746  24542701.32346
 128972760.08347        88.00047        19.00046        24.00046
 111800643.58248  87117384.98448  21274956.16648  21274955.22648  21274955.31448
 111800649.07948       451.00048       186.00048       173.00048
 125919669.67546  98119253.87348  23961710.98448  23961710.13546  23961714.03248
 125919673.14648       174.00048        27.00046       106.00048
 23 06 21 06 17 20.0000000  0  9 01 02 13 14 15 17 19 21 30
 118414013.43447  92270676.89348  22533435.69848  22533435.48347  22533438.73548
 118414012.93448       304.00048        67.00047       212.00048
 112892964.47048  87968538.88848  21482817.82748  21482816.73548  21482815.44848
 112892969.96748       460.00048       163.00048       305.00048
 120434983.17846  93845441.58047  22918017.61748  22918016.46046  22918017.85547
 120434987.65748       232.00048        35.00046        61.00047
 106527494.50949  83008438.39349  20271508.59049  20271508.44949  20271508.79549
 106527495.00449       691.00049       592.00049       599.00049
 120873450.01548  94187115.06548  23001450.19548  23001449.83648  23001450.25248
 120873451.51148       282.00048       248.00048       384.00048
 119300506.89148  92961451.16048  22702125.68348  22702125.31848  22702125.93648
 119300509.38848       238.00048       170.00048       467.00048
 129285599.91546 100742028.55346  24602235.10947  24602232.12746  24602234.88146
 129285609.40347        84.00047        20.00046        22.00046
 111780862.99348  87101971.66748  21271192.11248  21271190.98648  21271191.00448
 111780868.48948       453.00048       188.00048       174.00048
 126331884.29446  98440459.94848  24040152.81548  24040151.79746  24040156.10948
 126331887.80648       170.00048        26.00046       103.00048
 23 06 21 06 17 30.0000000  0  9 01 02 13 14 15 17 19 21 30
 118533364.05547  92363677.79248  22556147.02448  22556146.68747  22556149.97548
 118533363.55048       302.00048        65.00047       210.00048
 112925601.09048  87993970.34948  21489027.99948  21489027.02848  21489025.61048
 112925606.58748       461.00048       164.00048       308.00048
 120660169.44146  94020911.51947  22960869.11848  22960868.47946  22960869.26747
 120660173.93948       229.00048        35.00046        57.00047
 106722014.58049  83160012.47349  20308524.56549  20308524.40249  20308524.72449
 106722015.07449       691.00049       589.00049       582.00049
 120861852.74948  94178078.32048  22999243.02848  22999242.90248  22999243.25848
 120861854.24348       283.00048       249.00048       392.00048
 119605953.65848  93199461.62748  22760250.49148  22760249.95548  22760250.54148
 119605956.15548       233.00048       165.00048       453.00048
 129599355.59646 100986513.37946  24661940.15647  24661938.80046  24661939.95046
 129599365.08847        81.00047        19.00046        21.00046
 111764005.99548  87088836.70448  21267984.04248  21267982.93348  21267982.92848
 111764011.49548       454.00048       186.00048       174.00048
 126745639.96446  98762866.88747  24118888.07948  24118887.08646  24118891.25347
 126745643.46548       164.00048        25.00046        96.00047
 23 06 21 06 17 40.0000000  0  9 01 02 13 14 15 17 19 21 30
 118655076.44947  92458518.88948  22579307.95448  22579307.79647  22579310.80748
 118655075.95248       301.00048        63.00047       211.00048
 112961086.63748  88021621.65848  21495780.51048  21495779.45948  21495778.04048
 112961092.13248       462.00048       165.00048       309.00048
 120889162.82546  94199348.30547  23004444.79248  23004444.37346  23004444.91647
 120889167.31348       225.00048        31.00046        58.00047
 106921621.09449  83315550.30449  20346508.26149  20346508.06049  20346508.31849
 106921621.58949       691.00049       587.00049       566.00049
 120854801.56748  94172584.42048  22997900.85948  22997900.69748  22997900.92748
 120854803.06348       283.00048       248.00048       401.00048
 119913271.47148  93438930.29648  22818730.67848  22818730.46948  22818730.91248
 119913273.96448       226.00048       155.00048       438.00048
 129913982.15146 101231676.88146  24721812.07947  24721810.67146  24721811.69246
 129913991.66647        79.00047        19.00046        22.00046
 111750075.06948  87077981.54048  21265332.87348  21265331.83448  21265331.82848
 111750080.56548       453.00048       188.00048       174.00048
 127160859.37046  99086414.65047  24197901.55048  24197900.94846  24197904.71647
 127160862.90248       158.00048        23.00046        91.00047
 23 06 21 06 17 50.0000000  0  9 01 02 13 14 15 17 19 21 30
 118779133.19447  92555186.44548  22602915.12048  22602914.91847  22602917.98848
 118779132.69848       299.00048        64.00047       207.00048
 112999415.73148  88051488.46748  21503074.32548  21503073.31748  21503071.87748
 112999421.22948       462.00048       162.00048       308.00048
 121121904.67946  94380705.87247  23048733.84948  23048733.19246  23048733.86747
 121121909.18148       224.00048        33.00046        54.00047
 107126258.05249  83475007.84149  20385449.20749  20385449.03249  20385449.25549
 107126258.54749       689.00049       581.00049       551.00049
 120852292.11048  94170629.10248  22997423.35548  22997422.99848  22997423.31448
 120852293.60548       284.00048       249.00048       407.00048
 120222415.69048  93679822.07648  22877558.99248  22877558.52048  22877558.97848
 120222418.19048       222.00048       150.00048       422.00048
 130229444.58346 101477491.69046  24781842.55347  24781841.44546  24781841.76246
 130229454.06947        77.00047        20.00046        21.00046
 111739073.52148  87069408.85248  21263239.46048  21263238.45448  21263238.31448
 111739079.02048       455.00048       187.00048       177.00048
 127577465.07446  99411042.48347  24277178.74448  24277177.88946  24277182.10847
 127577468.57848       151.00048        21.00046        85.00047
 23 06 21 06 18 00.0000000  0  9 01 02 13 14 15 17 19 21 30
 118905517.16047  92653667.25048  22626965.35848  22626965.15347  22626968.32148
 118905516.65648       297.00048        64.00047       206.00048
 113040582.72348  88083566.30648  21510908.42548  21510907.34148  21510906.05348
 113040588.21848       464.00048       168.00048       309.00048
 121358336.74946  94564938.77847  23093725.31348  23093724.48446  23093725.22847
 121358341.24548       219.00048        32.00046        51.00047
 107335869.28949  83638341.31049  20425336.86449  20425336.67749  20425336.93749
 107335869.78449       686.00049       576.00049       542.00049
 120854321.09548  94172210.18448  22997809.22748  22997809.15748  22997809.35148
 120854322.59348       286.00048       253.00048       412.00048
 120533342.44348  93922102.81248  22936726.11448  22936725.84348  22936726.18548
 120533344.94248       217.00048       145.00048       406.00048
 130545707.69646 101723930.27946  24842025.41847  24842024.40046  24842025.72846
 130545717.18547        74.00047        19.00046        20.00046
 111731003.71848  87063120.34448  21261704.04148  21261702.93448  21261703.07448
 111731009.21348       455.00048       187.00048       176.00048
 127995380.88446  99736691.19647  24356705.77348  24356704.35646  24356708.75247
 127995384.37248       147.00048        23.00046        78.00047
 23 06 21 06 18 10.0000000  0  9 01 02 13 14 15 17 19 21 30
 119034211.24147  92753948.25348  22651455.17548  22651454.71447  22651458.02748
 119034210.73848       293.00048        60.00047       201.00048
 113084583.02548  88117852.23748  21519281.44748  21519280.36148  21519279.04348
 113084588.52248       465.00048       168.00048       311.00048
 121598399.82546  94752000.80346  23139407.89848  23139407.19046  23139407.62346
 121598404.34548       216.00048        31.00046        48.00046
 107550397.67349  83805506.20349  20466160.30749  20466160.14349  20466160.38549
 107550398.16749       680.00049       567.00049       530.00049
 120860883.24148  94177323.51948  22999058.13048  22999057.87148  22999058.09948
 120860884.73448       288.00048       257.00048       416.00048
 120846007.66548  94165738.01448  22996224.51148  22996223.94148  22996224.37248
 120846010.16048       214.00048       138.00048       390.00048
 130862736.37046 101970965.01546  24902355.05047  24902352.86846  24902354.65246
 130862745.85347        72.00047        20.00046        19.00046
 111725869.30448  87059119.58348  21260726.97148  21260725.88248  21260725.94548
 111725874.80348       457.00048       190.00048       179.00048
 128414530.73246 100063301.35347  24436467.14548  24436466.44346  24436470.50947
 128414534.21148       141.00048        21.00046        73.00047
 23 06 21 06 18 20.0000000  0 10 01 02 13 14 15 17 19 21 23 30
 119165197.63047  92856015.60048  22676381.08348  22676380.92847  22676383.93248
 119165197.13348       291.00048        64.00047       201.00048
 113131410.03948  88154340.98048  21528192.26548  21528191.11848  21528189.77648
 113131415.53548       466.00048       168.00048       314.00048
 121842035.60746  94941847.03346  23185770.24548  23185769.61946  23185769.91446
 121842040.10948       213.00048        31.00046        47.00046
 107769785.54449  83976457.79549  20507908.40749  20507908.26449  20507908.49549
 107769786.03949       672.00049       555.00049       518.00049
 120871972.34048  94185964.39148  23001168.23848  23001168.05148  23001168.28348
 120871973.83648       291.00048       262.00048       419.00048
 121160367.99048  94410694.08948  23056045.15548  23056044.81848  23056045.19448
 121160370.49048       210.00048       136.00048       373.00048
 131180496.69146 102218569.92346  24962822.46847  24962820.59446  24962823.30846
 131180506.19847        71.00047        19.00046        18.00046
 111723671.15248  87057406.79748  21260308.70848  21260307.59248  21260307.61848
 111723676.64848       457.00048       190.00048       179.00048
 122704282.49756  95613728.13558  23349848.93548  23349848.65846  23349849.15448
 122704283.97658       194.00048        50.00046       107.00048
 128834839.47746 100390814.42647  24516449.51648  24516448.09446  24516452.83447
 128834842.96148       137.00048        21.00046        68.00047
 23 06 21 06 18 30.0000000  0 10 01 02 13 14 15 17 19 21 23 30
 119298458.06047  92959854.98148  22701739.43248  22701739.43347  22701742.46148
 119298457.56748       288.00048        58.00047       198.00048
 113181056.23148  88193026.24048  21537639.65548  21537638.45048  21537637.22748
 113181061.72948       468.00048       167.00048       316.00048
 122089183.27846  95134429.68346  23232800.76148  23232799.65446  23232800.59346
 122089187.77048       209.00048        30.00046        47.00046
 107993973.96549  84151150.15149  20550569.95149  20550569.81849  20550570.04949
 107993974.45949       668.00049       545.00049       505.00049
 120887580.54848  94198126.65848  23004138.40648  23004138.19648  23004138.37248
 120887582.04048       294.00048       267.00048       421.00048
 121476379.76048  94656936.97748  23116180.19348  23116179.78948  23116180.32248
 121476382.25248       207.00048       131.00048       357.00048
 131498954.86046 102466718.95746  25023423.50447  25023421.50146  25023423.86346
 131498964.35947        70.00047        19.00046        17.00046
 111724410.66648  87057983.12548  21260449.33148  21260448.23748  21260448.19348
 111724416.16448       460.00048       193.00048       181.00048
 122430871.95147  95400681.19748  23297820.51048  23297820.24547  23297820.59248
 122430873.43748       198.00048        52.00047       110.00048
 129256233.12446 100719173.04947  24596638.30048  24596636.77746  24596641.24847
 129256236.61348       130.00048        22.00046        61.00047
 23 06 21 06 18 40.0000000  0 10 01 02 13 14 15 17 19 21 23 30
 119433973.83247  93065451.61648  22727527.30348  22727527.05747  22727530.31748
 119433973.34448       285.00048        58.00047       195.00048
 113233515.66048  88233903.93348  21547622.09548  21547621.08448  21547619.68548
 113233521.15748       470.00048       170.00048       319.00048
 122339782.36746  95329701.66546  23280488.01948  23280487.43446  23280488.03446
 122339786.85148       205.00048        29.00046        44.00046
 108222902.92549  84329536.39348  20594133.70049  20594133.50949  20594133.74648
 108222903.41949       661.00049       534.00049       495.00048
 120907699.03148  94213803.43048  23007966.76548  23007966.64548  23007966.80748
 120907700.52848       296.00048       272.00048       415.00048
 121793999.50148  94904432.83548  23176621.37348  23176620.94948  23176621.37848
 121794001.99348       201.00048       123.00048       341.00048
 131818075.46546 102715383.98746  25084150.10547  25084148.20246  25084150.88546
 131818084.96847        67.00047        20.00046        18.00046
 111728089.35148  87060850.02248  21261149.00248  21261147.99848  21261147.90448
 111728094.84648       461.00048       195.00048       183.00048
 122160190.13247  95189760.89148  23246310.81248  23246310.64747  23246311.05748
 122160191.61348       201.00048        53.00047       112.00048
 129678637.22646 101048318.97047  24677019.03548  24677018.36346  24677022.38147
 129678640.72348       126.00048        22.00046        59.00047
 23 06 21 06 18 50.0000000  0 10 01 02 13 14 15 17 19 21 23 30
 119571728.07147  93172793.19148  22753740.48348  22753740.49947  22753743.50748
 119571727.56948       281.00048        58.00047       193.00048
 113288781.12248  88276968.66248  21558138.33548  21558137.26748  21558135.61248
 113288786.62048       470.00048       171.00048       323.00048
 122593772.19246  95527615.84146  23328820.81248  23328820.09646  23328820.68346
 122593776.68948       202.00048        27.00046        42.00046
 108456512.23449  84511569.82648  20638587.91749  20638587.73149  20638587.89648
 108456512.72849       656.00049       526.00049       482.00048
 120932318.55448  94232988.00348  23012651.49548  23012651.12148  23012651.20848
 120932320.05248       298.00048       275.00048       412.00048
 122113184.03748  95153148.14848  23237360.14648  23237359.70348  23237360.04748
 122113186.53348       198.00048       120.00048       325.00048
 132137825.21546 102964539.49246  25144996.49947  25144994.80446  25144996.66546
 132137834.71747        65.00047        18.00046        19.00046
 111734707.18848  87066007.31348  21262407.99748  21262406.87948  21262406.68548
 111734712.68748       464.00048       193.00048       183.00048
 121892283.17247  94981002.72548  23195329.58048  23195329.26947  23195329.52048
 121892284.64748       205.00048        56.00047       116.00048
 130101978.87546 101378195.65447  24757578.19748  24757577.39646  24757581.58947
 130101982.39748       119.00048        20.00046        55.00047
 23 06 21 06 19 00.0000000  0 10 01 02 13 14 15 17 19 21 23 30
 119711700.30247  93281862.90048  22780376.06648  22780376.02247  22780378.92648
 119711699.79748       278.00048        57.00047       188.00048
 113346842.54648  88322211.48848  21569186.84448  21569185.75348  21569184.22748
 113346848.04348       471.00048       171.00048       329.00048
 122851092.18446  95728125.27246  23377787.06648  23377785.94846  23377786.67246
 122851096.68148       196.00048        29.00046        40.00046
 108694740.32449  84697202.34448  20683920.97349  20683920.86749  20683920.97748
 108694740.81749       650.00049       515.00049       470.00048
 120961426.02048  94255669.29048  23018190.17048  23018190.02748  23018190.02648
 120961427.51148       299.00048       277.00048       411.00048
 122433889.97148  95403049.03648  23298388.47348  23298387.95048  23298388.23748
 122433892.46948       193.00048       115.00048       307.00048
 132458169.75746 103214158.62946  25205955.46447  25205954.76946  25205957.09346
 132458179.26647        64.00047        19.00046        19.00046
 111744263.25348  87073453.79748  21264226.32148  21264225.21148  21264224.93548
 111744268.75248       465.00048       195.00048       184.00048
 121627197.34147  94774442.48248  23144885.39648  23144884.90447  23144885.11248
 121627198.82648       209.00048        57.00047       118.00048
 130526184.91346 101708745.86047  24838301.93148  24838301.13646  24838305.53247
 130526188.40348       114.00048        20.00046        51.00047
 23 06 21 06 19 10.0000000  0 10 01 02 13 14 15 17 19 21 23 30
 119853871.37447  93392645.73948  22807430.28748  22807430.11947  22807432.90748
 119853870.88148       275.00048        54.00047       185.00048
 113407692.72648  88369627.33448  21580766.19048  21580765.07348  21580763.50948
 113407698.22448       470.00048       170.00048       328.00048
 123111679.46246  95931180.40946  23427374.94448  23427374.30746  23427374.70946
 123111683.96048       192.00048        27.00046        38.00046
 108937524.90849  84886385.30948  20730121.21749  20730121.10349  20730121.19048
 108937525.40249       646.00049       506.00049       459.00048
 120995009.38848  94281838.24748  23024580.80548  23024580.63048  23024580.59248
 120995010.88548       301.00048       280.00048       406.00048
 122756074.20748  95654101.95848  23359697.83348  23359697.32448  23359697.59648
 122756076.70448       188.00048       109.00048       291.00048
 132779074.48546 103464213.99046  25267022.14347  25267020.90946  25267023.23146
 132779083.99247        63.00047        19.00046        18.00046
 111756757.20348  87083189.29248  21266603.80448  21266602.76548  21266602.56848
 111756762.70248       465.00048       195.00048       184.00048
 121364979.80947  94570117.20348  23094986.91348  23094986.58147  23094986.84748
 121364981.29148       213.00048        59.00047       122.00048
 130951183.14046 102039913.39946  24919176.89248  24919174.92046  24919179.51446
 130951186.63948       109.00048        20.00046        44.00046
 23 06 21 06 19 20.0000000  0 10 01 02 13 14 15 17 19 21 23 30
 119998222.43847  93505127.11448  22834899.38648  22834899.11647  22834901.91648
 119998221.92848       270.00048        53.00047       184.00048
 113471322.52148  88419208.84348  21592874.63548  21592873.54948  21592871.99048
 113471328.01848       469.00048       170.00048       333.00048
 123375472.25346  96136733.24846  23477572.97748  23477572.25646  23477572.89446
 123375476.76248       188.00048        25.00046        38.00046
 109184803.27648  85079069.86348  20777176.62549  20777176.53048  20777176.54448
 109184803.76949       639.00049       495.00048       442.00048
 121033055.11848  94311484.46048  23031820.68148  23031820.38548  23031820.27048
 121033056.61248       300.00048       276.00048       402.00048
 123079693.38748  95906272.93548  23421280.39148  23421279.82348  23421280.08248
 123079695.87948       185.00048       103.00048       276.00048
 133100506.63346 103714680.59646  25328188.70747  25328187.74246  25328189.21846
 133100516.12847        60.00047        19.00046        17.00046
 111772188.39648  87095213.42648  21269540.38448  21269539.33248  21269539.17948
 111772193.89348       466.00048       197.00048       184.00048
 121105676.87347  94368063.00348  23045643.14048  23045642.70147  23045643.04248
 121105678.35448       217.00048        61.00047       121.00048
 131376901.87046 102371642.32446  25000188.24748  25000186.28646  25000190.93946
 131376905.37148       103.00048        20.00046        41.00046
 23 06 21 06 19 30.0000000  0 10 01 02 13 14 15 17 19 21 23 30
 120144734.13147  93619291.99948  22862779.70248  22862779.48247  22862782.30448
 120144733.63748       267.00048        51.00047       178.00048
 113537723.59048  88470949.88048  21605510.42148  21605509.28848  21605507.77848
 113537729.08748       468.00048       169.00048       332.00048
 123642408.20346  96344735.12346  23528369.35948  23528368.07446  23528368.88246
 123642412.67748       182.00048        24.00046        36.00046
 109436512.08348  85275206.67948  20825075.26049  20825075.04248  20825075.08348
 109436512.57649       634.00049       484.00048       429.00048
 121075547.96548  94344595.94248  23039906.70648  23039906.36248  23039906.25048
 121075549.46048       299.00048       277.00048       397.00048
 123404704.58347  96159528.53448  23483127.70748  23483127.26647  23483127.54148
 123404707.08648       179.00048        98.00047       263.00048
 133422431.69846 103965531.23346  25389449.54547  25389447.60746  25389449.83146
 133422441.20247        59.00047        19.00046        16.00046
 111790556.18648  87109526.06348  21273035.60848  21273034.56548  21273034.28848
 111790561.68248       465.00048       196.00048       185.00048
 120849334.80447  94168316.11948  22996862.89048  22996862.68147  22996862.63048
 120849336.29448       224.00048        65.00047       128.00048
 131803270.22746 102703877.41246  25081323.25947  25081322.04646  25081326.37846
 131803273.70647        98.00047        20.00046        38.00046
 23 06 21 06 19 40.0000000  0  9 01 02 13 14 15 17 21 23 30
 120293387.23247  93735125.51348  22891067.41048  22891067.38647  22891070.10848
 120293386.73548       263.00048        52.00047       175.00048
 113606886.68348  88524843.37848  21618671.61548  21618670.42248  21618668.85148
 113606892.17948       465.00048       168.00048       331.00048
 123912424.61446  96555137.29546  23579752.08848  23579750.87446  23579752.15146
 123912429.08848       176.00048        24.00046        34.00046
 109692587.31848  85474745.87048  20873804.71049  20873804.51448  20873804.54148
 109692587.81249       627.00049       473.00048       413.00048
 121122471.45548  94381159.66048  23048835.82848  23048835.63948  23048835.53048
 121122472.95048       297.00048       273.00048       396.00048
 123731065.18147  96413835.51548  23545232.13548  23545231.69747  23545231.85948
 123731067.67548       174.00048        91.00047       245.00048
 111811858.46648  87126125.38748  21277089.20948  21277088.18848  21277087.94248
 111811863.96348       466.00048       198.00048       185.00048
 120595998.65347  93970911.33148  22948654.62548  22948654.24047  22948654.32348
 120596000.13748       231.00048        68.00047       127.00048
 132230217.75846 103036563.75446  25162568.40847  25162567.86446  25162571.94546
 132230221.25847        93.00047        19.00046        34.00046
 23 06 21 06 19 50.0000000  0  9 01 02 13 14 15 17 21 23 30
 120444162.36946  93852612.76548  22919758.92948  22919758.65246  22919761.58148
 120444161.86748       261.00048        50.00046       172.00048
 113678801.23648  88580880.73148  21632356.43748  21632355.35748  21632353.69848
 113678806.73748       464.00048       166.00048       330.00048
 124185458.81646  96767891.11446  23631708.62048  23631707.90146  23631708.77346
 124185463.33248       170.00048        25.00046        34.00046
 109952964.42348  85677637.13348  20923352.82149  20923352.64148  20923352.59348
 109952964.91449       619.00049       461.00048       397.00048
 121173808.87848  94421162.96848  23058604.95948  23058604.76248  23058604.59148
 121173810.37648       296.00048       268.00048       394.00048
 124058732.57147  96669160.70448  23607585.22348  23607584.93047  23607584.90548
 124058735.07148       168.00048        87.00047       228.00048
 111836092.50948  87145009.03548  21281700.82648  21281699.72048  21281699.48248
 111836098.00648       466.00048       196.00048       184.00048
 120345714.13847  93775884.51548  22901026.83848  22901026.62147  22901026.73648
 120345715.63248       238.00048        74.00047       130.00048
 132657674.97746 103369647.29246  25243910.83647  25243909.55746  25243914.16546
 132657678.48247        88.00047        19.00046        32.00046
 23 06 21 06 20 00.0000000  0  9 01 02 13 14 15 17 21 23 30
 120597039.18446  93971737.69548  22948850.22048  22948850.08646  22948852.96848
 120597038.69348       257.00048        49.00046       170.00048
 113753457.31048  88639054.36548  21646562.98148  21646561.85548  21646560.25748
 113753462.80648       460.00048       161.00048       329.00048
 124461447.90146  96982947.61046  23684227.67748  23684226.86146  23684227.55446
 124461452.41148       166.00048        22.00046        32.00046
 110217578.37248  85883829.85648  20973707.10649  20973706.92748  20973706.94148
 110217578.86349       611.00049       447.00048       382.00048
 121229541.11948  94464590.66648  23069210.52448  23069210.22348  23069210.13348
 121229542.61248       295.00048       263.00048       392.00048
 124387664.63747  96925471.51848  23670178.84748  23670178.36147  23670178.54748
 124387667.13148       163.00048        81.00047       214.00048
 111863256.26448  87166175.75948  21286869.79048  21286868.71948  21286868.49548
 111863261.76148       465.00048       195.00048       186.00048
 120098525.85247  93583270.22748  22853988.75348  22853988.19647  22853988.38348
 120098527.33448       246.00048        76.00047       132.00048
 133085572.67446 103703074.02046  25325336.55147  25325335.86446  25325340.51846
 133085576.16647        83.00047        19.00046        29.00046
 23 06 21 06 20 10.0000000  0  9 01 02 13 14 15 17 21 23 30
 120751997.59146  94092484.57948  22978337.82348  22978337.60546  22978340.38448
 120751997.09048       254.00048        48.00046       165.00048
 113830844.15748  88699355.81248  21661289.13248  21661288.12148  21661286.47148
 113830849.65448       457.00048       158.00048       327.00048
 124740327.78046  97200256.64246  23737296.46648  23737296.20446  23737296.39646
 124740332.29948       161.00048        22.00046        31.00046
 110486363.44348  86093272.76548  21024855.18149  21024855.03548  21024855.05848
 110486363.93549       604.00049       441.00048       370.00048
 121289649.13748  94511428.26148  23080648.41148  23080648.28348  23080648.07648
 121289650.63248       292.00048       260.00048       393.00048
 124717818.58147  97182734.30748  23733004.97548  23733004.42947  23733004.75948
 124717821.08248       158.00048        76.00047       200.00048
 111893346.12848  87189622.40748  21292595.70348  21292594.56448  21292594.34548
 111893351.62748       466.00048       195.00048       186.00048
 119854478.21147  93393103.05348  22807548.01448  22807547.68347  22807547.97648
 119854479.69948       255.00048        82.00047       134.00048
 133513842.37446 104036790.60346  25406833.88247  25406833.34146  25406837.51746
 133513845.87647        80.00047        18.00046        27.00046
 23 06 21 06 20 20.0000000  0  9 01 02 13 14 15 17 21 23 30
 120909016.72246  94214836.89748  23008217.76348  23008217.53346  23008220.37248
 120909016.22248       251.00048        46.00046       162.00048
 113910950.09748  88761775.65748  21676532.98748  21676532.06248  21676530.50048
 113910955.59448       453.00048       157.00048       323.00048
 125022034.24946  97419767.86746  23790903.74548  23790902.99546  23790903.79846
 125022038.75448       157.00048        23.00046        30.00046
 110759253.48948  86305914.27248  21076784.61749  21076784.38248  21076784.40348
 110759253.98049       597.00049       428.00048       358.00048
 121354111.17248  94561658.37048  23092915.22648  23092914.96548  23092914.85748
 121354112.66748       290.00048       259.00048       389.00048
 125049152.29847  97440916.25348  23796055.59948  23796055.38047  23796055.61748
 125049154.80448       154.00048        73.00047       189.00048
 111926357.56648  87215345.14748  21298877.94748  21298876.88548  21298876.65048
 111926363.06248       465.00048       195.00048       185.00048
 119613616.23647  93205418.48748  22761713.51548  22761713.07647  22761713.32048
 119613617.72748       263.00048        87.00047       135.00048
 133942416.09046 104370743.94246  25488388.97547  25488388.26546  25488392.04146
 133942419.60047        76.00047        19.00046        25.00046
 23 06 21 06 20 30.0000000  0  9 01 02 13 14 15 17 21 23 30
 121068076.99046  94338779.76148  23038486.06248  23038485.77946  23038488.74448
 121068076.48348       248.00048        45.00046       155.00048
 113993765.24548  88826306.90448  21692292.28748  21692291.24148  21692289.68148
 113993770.74348       449.00048       155.00048       320.00048
 125306504.60746  97641433.08446  23845036.68548  23845035.72346  23845036.84146
 125306509.12248       151.00048        22.00046        29.00046
 111036182.22948  86521702.84248  21129482.44749  21129482.24548  21129482.25248
 111036182.72149       590.00049       418.00048       345.00048
 121422905.98648  94615264.79048  23106006.36248  23106006.13948  23106006.01648
 121422907.48048       287.00048       255.00048       386.00048
 125381624.32547  97699985.26248  23859323.30848  23859322.65447  23859323.04048
 125381626.82548       147.00048        69.00047       173.00048
 111962288.77948  87243343.64548  21305715.23948  21305714.23648  21305714.02948
 111962294.27648       465.00048       195.00048       184.00048
 119375982.93747  93020249.68448  22716493.45848  22716493.06147  22716493.19448
 119375984.43148       271.00048        92.00047       137.00048
 134371226.74446 104704881.85146  25569989.55147  25569987.94746  25569992.35146
 134371230.24847        72.00047        18.00046        22.00046
 23 06 21 06 20 40.0000000  0  9 01 02 13 14 15 17 21 23 30
 121229157.85046  94464297.22448  23069138.68148  23069138.59446  23069141.52248
 121229157.35348       246.00048        45.00046       152.00048
 114079277.20248  88892939.56948  21708564.63848  21708563.67148  21708562.11048
 114079282.69748       446.00048       153.00048       315.00048
 125593673.86946  97865201.17146  23899683.31848  23899682.61846  23899683.52046
 125593678.37348       148.00048        22.00046        27.00046
 111317082.59448  86740586.15148  21182936.05349  21182935.85748  21182935.87548
 111317083.08549       581.00049       404.00048       335.00048
 121496010.04948  94672228.97448  23119917.74148  23119917.40948  23119917.26648
 121496011.54448       285.00048       249.00048       385.00048
 125715192.79047  97959908.65048  23922799.40548  23922798.73347  23922799.14948
 125715195.29048       142.00048        63.00047       160.00048
 112001133.39248  87273612.01548  21313107.20248  21313106.20448  21313106.04348
 112001138.88948       464.00048       196.00048       184.00048
 119141621.89347  92837630.75948  22671895.92948  22671895.58647  22671895.62748
 119141623.38748       276.00048        96.00047       137.00048
 134800207.77846 105039152.50746  25651621.41547  25651621.44646  25651625.17246
 134800211.27147        68.00047        20.00046        22.00046
 23 06 21 06 20 50.0000000  0  9 01 02 13 14 15 17 21 23 30
 121392238.52446  94591373.01648  23100171.96548  23100171.95046  23100174.74348
 121392238.01848       242.00048        44.00046       147.00048
 114167474.07348  88961664.47648  21725347.95248  21725346.77948  21725345.35648
 114167479.57048       442.00048       150.00048       311.00048
 125883478.02546  98091022.36946  23954831.28248  23954830.30946  23954831.08746
 125883482.52548       144.00048        21.00046        25.00046
 111601887.51248  86962512.01948  21237132.65649  21237132.44048  21237132.50848
 111601888.00349       571.00049       389.00048       327.00048
 121573399.60648  94732532.66948  23134644.14448  23134644.08848  23134643.84548
 121573401.09848       283.00048       244.00048       380.00048
 126049816.01747  98220653.89548  23986475.71648  23986475.56447  23986475.89848
 126049818.50848       138.00048        59.00047       148.00048
 112042887.91448  87306148.17548  21321052.71548  21321051.77748  21321051.49148
 112042893.41148       465.00048       196.00048       186.00048
 118910575.73048  92657594.80848  22627929.17948  22627929.02648  22627928.96048
 118910577.22148       284.00048       102.00048       142.00048
 135229293.26746 105373504.48846  25733274.72247  25733274.02846  25733278.05846
 135229296.76647        64.00047        18.00046        20.00046
 23 06 21 06 21 00.0000000  0  9 01 02 13 14 15 17 21 23 30
 121557298.63646  94719991.55748  23131581.88748  23131581.54946  23131584.49648
 121557298.14548       239.00048        43.00046       141.00048
 114258343.82548  89032472.42048  21742639.70048  21742638.54748  21742636.90648
 114258349.32548       438.00048       149.00048       306.00048
 126175853.55446  98318847.50346  24010468.36648  24010467.45246  24010468.40946
 126175858.05748       140.00048        21.00046        22.00046
 111890529.27548  87187427.63148  21292059.40549  21292059.19548  21292059.20848
 111890529.76649       559.00049       373.00048       321.00048
 121655049.15548  94796155.84348  23150181.38548  23150181.26448  23150181.09848
 121655050.65048       280.00048       240.00048       374.00048
 126385452.84247  98482189.00748  24050345.38448  24050345.27647  24050345.58748
 126385455.34148       133.00048        56.00047       137.00048
 112087546.43048  87340947.29548  21329550.85748  21329549.73048  21329549.44548
 112087551.92748       465.00048       195.00048       188.00048
 118682886.86348  92480174.91748  22584601.48148  22584601.13548  22584601.24348
 118682888.35548       290.00048       107.00048       143.00048
 135658417.82646 105707886.84546  25814934.40047  25814933.25646  25814937.58746
 135658421.33047        61.00047        19.00046        20.00046
 23 06 21 06 21 10.0000000  0  9 01 02 13 14 15 17 21 23 30
 121724316.95446  94850136.12548  23163363.91148  23163363.73946  23163366.55348
 121724316.45548       235.00048        40.00046       137.00048
 114351873.13348  89105352.72048  21760437.35848  21760436.34248  21760434.67648
 114351878.62948       435.00048       147.00048       302.00048
 126470735.49346  98548625.81646  24066582.83948  24066581.30346  24066582.28946
 126470740.00248       135.00048        22.00046        24.00046
 112182940.41948  87415280.61248  21347703.25749  21347703.04048  21347703.05448
 112182940.90949       545.00049       357.00048       315.00048
 121740932.28048  94863077.89348  23166524.44948  23166524.22548  23166523.97448
 121740933.77348       279.00048       237.00048       367.00048
 126722062.01447  98744481.78648  24114400.15148  24114400.02747  24114400.23048
 126722064.51848       128.00048        52.00047       125.00048
 112135103.06448  87378004.72548  21338600.30948  21338599.20548  21338598.86948
 112135108.56348       465.00048       194.00048       190.00048
 118458598.13048  92305404.92248  22541920.43348  22541920.20148  22541920.07148
 118458599.62748       296.00048       112.00048       145.00048
 136087517.29846 106042249.83646  25896589.89647  25896587.76846  25896594.01846
 136087520.80747        59.00047        18.00046        19.00046
 23 06 21 06 21 20.0000000  0  9 01 02 13 14 15 17 21 23 30
 121893271.35146  94981789.05748  23195514.80148  23195514.55646  23195517.27048
 121893270.84648       230.00048        39.00046       133.00048
 114448048.44548  89180294.62548  21778738.87548  21778737.86848  21778736.12048
 114448053.93948       432.00048       144.00048       299.00048
 126768059.30346  98780306.88046  24123161.21348  24123159.77646  24123161.00046
 126768063.78248       130.00048        22.00046        22.00046
 112479052.15348  87646017.07848  21404051.42649  21404051.22548  21404051.24748
 112479052.64349       532.00049       337.00048       308.00048
 121831021.14348  94933276.97748  23183667.86248  23183667.57648  23183667.39448
 121831022.63948       278.00048       237.00048       359.00048
 127059602.25846  99007499.93448  24178631.98648  24178631.70546  24178632.23348
 127059604.75948       122.00048        47.00046       116.00048
 112185551.03648  87417314.92848  21348200.18348  21348199.05648  21348198.75448
 112185556.53148       464.00048       194.00048       191.00048
 118237750.52448  92133316.60748  22499894.01348  22499893.79248  22499893.43648
 118237752.01648       303.00048       115.00048       147.00048
 136516527.41846 106376543.21046  25978227.78547  25978225.67746  25978231.27646
 136516530.90247        54.00047        19.00046        18.00046
 23 06 21 06 21 30.0000000  0  8 01 02 13 14 15 17 21 23
 122064141.60446  95114935.10848  23228030.07148  23228029.90946  23228032.46148
 122064141.12048       226.00048        41.00046       128.00048
 114546856.97848  89257288.47448  21797541.45648  21797540.30448  21797538.53848
 114546862.47748       429.00048       139.00048       298.00048
 127067760.01046  99013839.98346  24180192.55448  24180191.03746  24180192.83646
 127067764.51848       126.00048        22.00046        21.00046
 112778796.78848  87879584.58748  21461090.67549  21461090.56948  21461090.46348
 112778797.27649       516.00049       317.00048       300.00048
 121925288.49848  95006732.40848  23201606.02348  23201605.83148  23201605.43248
 121925289.99248       277.00048       234.00048       355.00048
 127398033.94846  99271213.13148  24243033.44448  24243032.96946  24243033.41848
 127398036.45348       117.00048        44.00046       106.00048
 112238884.44848  87458873.65348  21358348.99348  21358347.94448  21358347.57548
 112238889.94548       462.00048       192.00048       192.00048
 118020382.90148  91963939.22148  22458530.35848  22458530.01648  22458529.76048
 118020384.39448       309.00048       119.00048       150.00048
 23 06 21 06 21 40.0000000  0  8 01 02 13 14 15 17 21 23
 122236905.30346  95249556.25248  23260905.69548  23260905.17446  23260908.19548
 122236904.79548       221.00048        37.00046       124.00048
 114648284.41048  89336322.86748  21816842.38048  21816841.27448  21816839.55848
 114648289.90548       425.00048       137.00048       293.00048
 127369773.75346  99249175.72346  24237663.66748  24237662.55446  24237662.79146
 127369778.26748       121.00048        22.00046        20.00046
 113082105.01948  88115928.81348  21518808.20049  21518808.06148  21518807.93848
 113082105.51049       503.00049       302.00048       291.00048
 122023703.79248  95083419.92948  23220333.64648  23220333.45948  23220332.95048
 122023705.28748       276.00048       233.00048       350.00048
 127737315.46846  99535588.48947  24307596.34948  24307595.74746  24307596.30847
 127737317.96148       112.00048        40.00046        97.00047
 112295095.36948  87502674.34748  21369045.68548  21369044.57348  21369044.12148
 112295100.86748       461.00048       191.00048       193.00048
 117806536.98748  91797306.00348  22417836.82548  22417836.52648  22417836.31748
 117806538.47648       317.00048       125.00048       152.00048
 23 06 21 06 21 50.0000000  0  8 01 02 13 14 15 17 21 23
 122411541.00146  95385635.93048  23294137.90748  23294137.44346  23294140.37348
 122411540.51648       217.00048        37.00046       118.00048
 114752316.71048  89417386.96348  21836639.13248  21836638.03048  21836636.25848
 114752322.20948       421.00048       138.00048       291.00048
 127674035.00846  99486262.48946  24295562.26448  24295561.54246  24295562.51946
 127674039.49348       116.00048        21.00046        19.00046
 113388908.20848  88354996.31648  21577190.83648  21577190.74248  21577190.58048
 113388908.69648       489.00048       287.00048       281.00048
 122126236.57848  95163315.78248  23239844.97648  23239844.63048  23239844.12648
 122126238.07448       276.00048       231.00048       344.00048
 128077406.45146  99800594.55047  24372313.33548  24372313.21946  24372313.42847
 128077408.93548       107.00048        39.00046        87.00047
 112354176.83948  87548711.79848  21380288.48848  21380287.39648  21380287.01948
 112354182.33648       459.00048       187.00048       192.00048
 117596252.85548  91633448.36648  22377821.00548  22377820.80548  22377820.39948
 117596254.34748       325.00048       132.00048       153.00048
 23 06 21 06 22 00.0000000  0  8 01 02 13 14 15 17 21 23
 122588027.73946  95523158.04848  23327722.34548  23327722.07746  23327724.47448
 122588027.24448       212.00048        36.00046       113.00048
 114858939.85048  89500470.01948  21856928.73448  21856927.66248  21856925.87048
 114858945.34948       418.00048       133.00048       290.00048
 127980479.78246  99725050.87346  24353876.90248  24353875.95146  24353876.56946
 127980484.29348       112.00048        18.00046        20.00046
 113699137.53048  88596733.50348  21636225.55048  21636225.34148  21636225.20148
 113699138.01648       478.00048       274.00048       269.00048
 122232855.40348  95246395.51848  23260133.75248  23260133.44348  23260132.92448
 122232856.89848       273.00048       229.00048       339.00048
 128418266.75746 100066200.07447  24437176.79948  24437176.93746  24437177.02547
 128418269.26648       103.00048        35.00046        81.00047
 112416121.29948  87596980.28448  21392075.97448  21392075.03748  21392074.60848
 112416126.79548       456.00048       188.00048       193.00048
 117389569.01848  91472395.97648  22338490.45248  22338490.12048  22338489.81648
 117389570.50948       333.00048       139.00048       160.00048
 23 06 21 06 22 10.0000000  0  9 01 02 13 14 15 17 21 23 24
 122766343.65446  95662105.56648  23361654.46448  23361654.47446  23361656.87748
 122766343.13848       207.00048        34.00046       112.00048
 114968138.46648  89585559.79848  21877708.58148  21877707.49848  21877705.76348
 114968143.96648       415.00048       132.00048       284.00048
 128289043.17746  99965489.99046  24412594.62548  24412593.89946  24412593.57546
 128289047.67448       107.00048        20.00046        19.00046
 114012723.99848  88841086.65248  21695899.03548  21695898.77948  21695898.64648
 114012724.48548       467.00048       260.00048       258.00048
 122343527.83548  95332633.84948  23281193.86548  23281193.64148  23281193.08148
 122343529.33148       273.00048       226.00048       335.00048
 128759856.51546 100332373.98447  24502179.03447  24502179.07946  24502179.23847
 128759859.01347        98.00047        32.00046        76.00047
 112480919.70248  87647472.47448  21404406.84248  21404405.78748  21404405.40448
 112480925.20248       453.00048       184.00048       192.00048
 117186524.31548  91314179.26348  22299852.22448  22299852.13748  22299851.76648
 117186525.80548       341.00048       145.00048       161.00048
 119261638.36158  92931154.67759  22694735.53548  22694735.33348  22694737.30949
 119261639.86158       313.00048       338.00048       820.00049
 23 06 21 06 22 20.0000000  0  9 01 02 13 14 15 17 21 23 24
 122946466.53646  95802461.06248  23395930.72248  23395930.94846  23395933.24848
 122946466.03748       205.00048        32.00046       109.00048
 115079897.92848  89672645.06848  21898975.68748  21898974.67748  21898972.88448
 115079903.41948       412.00048       132.00048       281.00048
 128599660.67446 100207529.71846  24471702.88248  24471702.54646  24471701.47346
 128599665.15148       104.00048        19.00046        18.00046
 114329598.47848  89088001.87248  21756198.10048  21756197.97448  21756197.84048
 114329598.96748       459.00048       251.00048       244.00048
 122458220.65148  95422004.97548  23303019.03948  23303018.87648  23303018.35248
 122458222.14748       270.00048       220.00048       331.00048
 129102136.16346 100599085.50147  24567312.92347  24567312.94446  24567312.80247
 129102138.65547        93.00047        30.00046        68.00047
 112548563.52948  87700181.86248  21417279.17948  21417278.05348  21417277.68648
 112548569.02548       449.00048       182.00048       191.00048
 116987156.93148  91158828.11848  22261913.87248  22261913.66848  22261913.36448
 116987158.42748       348.00048       150.00048       166.00048
 119124035.27648  92823931.49449  22668550.62548  22668550.40048  22668552.29349
 119124036.77248       317.00048       345.00048       829.00049
 23 06 21 06 22 30.0000000  0  9 01 02 13 14 15 17 21 23 24
 123128374.63846  95944207.61348  23430546.71248  23430546.71546  23430549.02048
 123128374.12948       200.00048        33.00046       104.00048
 115194202.61148  89761713.58848  21920727.20048  21920726.14348  21920724.38048
 115194208.11248       408.00048       130.00048       278.00048
 128912267.94346 100451120.01546  24531189.77247  24531189.05346  24531189.78946
 128912272.44947       100.00047        19.00046        18.00046
 114649691.85448  89337425.30748  21817109.94548  21817109.71948  21817109.54748
 114649692.34248       450.00048       240.00048       233.00048
 122576899.36148  95514481.97748  23325602.76648  23325602.62048  23325602.06748
 122576900.85548       266.00048       216.00048       328.00048
 129445065.74346 100866303.45047  24632570.18847  24632570.22246  24632570.25747
 129445068.25747        88.00047        29.00046        60.00047
 112619044.11748  87755101.89648  21430691.13848  21430689.96548  21430689.59748
 112619049.61348       445.00048       176.00048       189.00048
 116791503.85848  91006371.19148  22224682.33248  22224682.18048  22224681.73848
 116791505.34848       355.00048       155.00048       170.00048
 118991325.14648  92720520.97849  22643296.66048  22643296.50748  22643298.40249
 118991326.64448       321.00048       352.00048       829.00049
 23 06 21 06 22 40.0000000  0  9 01 02 13 14 15 17 21 23 24
 123312045.69646  96087327.84647  23465498.18748  23465497.96146  23465500.62547
 123312045.19548       197.00048        32.00046        99.00047
 115311036.85148  89852753.18648  21942960.06848  21942959.06648  21942957.26048
 115311042.35148       403.00048       125.00048       273.00048
 129226800.21046 100696210.11946  24591042.96147  24591041.84546  24591042.81146
 129226804.69347        96.00047        21.00046        17.00046
 114972934.80848  89589302.92348  21878621.02548  21878620.86548  21878620.61648
 114972935.29648       442.00048       230.00048       222.00048
 122699528.63848  95610037.32148  23348938.34148  23348938.12448  23348937.58248
 122699530.13448       263.00048       207.00048       324.00048
 129788606.02646 101133997.16347  24697943.46347  24697943.33546  24697943.60147
 129788608.49347        85.00047        28.00046        56.00047
 112692351.11448  87812224.15048  21444641.07548  21444639.94248  21444639.52648
 112692356.61148       442.00048       176.00048       185.00048
 116599601.40948  90856836.67548  22188164.60248  22188164.40448  22188164.07048
 116599602.90648       360.00048       161.00048       172.00048
 118863546.19648  92620952.85249  22618981.24548  22618981.00348  22618983.00049
 118863547.69148       325.00048       361.00048       833.00049
 23 06 21 06 22 50.0000000  0  8 01 02 14 15 17 21 23 24
 123497457.89246  96231804.88147  23500781.03548  23500780.80446  23500783.40247
 123497457.39248       195.00048        31.00046        98.00047
 115430384.96248  89945751.77748  21965671.25748  21965670.16448  21965668.38648
 115430390.45748       398.00048       122.00048       268.00048
 115299258.19548  89843580.84348  21940718.37048  21940718.14248  21940717.94648
 115299258.68348       429.00048       219.00048       208.00048
 122826072.31548  95708642.78448  23373018.84948  23373018.55648  23373018.02548
 122826073.80948       256.00048       201.00048       323.00048
 130132717.93346 101402136.33747  24763426.17647  24763425.77746  24763425.77347
 130132720.43847        80.00047        26.00046        51.00047
 112768475.10048  87871541.55948  21459126.96448  21459125.84248  21459125.41248
 112768480.59648       436.00048       170.00048       186.00048
 116411486.20748  90710253.38948  22152367.47548  22152367.33348  22152366.96248
 116411487.70148       366.00048       166.00048       178.00048
 118740735.58848  92525256.06849  22595611.35248  22595611.15548  22595613.13049
 118740737.08648       329.00048       371.00048       832.00049
 23 06 21 06 23 00.0000000  0  8 01 02 14 15 17 21 23 24
 123684588.98746  96377621.44747  23536390.88348  23536390.53446  23536393.08547
 123684588.50448       191.00048        31.00046        97.00047
 115552230.32248  90040696.27748  21988857.56548  21988856.57248  21988854.70848
 115552235.81548       391.00048       119.00048       263.00048
 115628592.88348  90100205.25948  22003388.73948  22003388.43648  22003388.25948
 115628593.37248       417.00048       208.00048       197.00048
 122956493.33248  95810269.50748  23397837.07848  23397836.94648  23397836.37048
 122956494.82948       251.00048       191.00048       315.00048
 130477362.82646 101670690.79546  24829010.20547  24829009.09046  24829009.54446
 130477365.32247        76.00047        25.00046        46.00046
 112847405.52248  87933045.82948  21474146.78548  21474145.71748  21474145.26448
 112847411.02148       431.00048       167.00048       181.00048
 116227193.29948  90566648.58948  22117297.68748  22117297.43648  22117297.20348
 116227194.79248       370.00048       168.00048       183.00048
 118622929.93548  92433459.57249  22573193.60348  22573193.39748  22573195.35449
 118622931.43348       333.00048       381.00048       836.00049
 23 06 21 06 23 10.0000000  0  8 01 02 14 15 17 21 23 24
 123873416.38446  96524759.73547  23572323.29448  23572323.24746  23572325.80647
 123873415.87548       188.00048        30.00046        93.00047
 115676556.19348  90137573.58348  22012515.94848  22012514.92648  22012513.08448
 115676561.69048       385.00048       114.00048       259.00048
 115960869.73648  90359122.29148  22066618.87548  22066618.62248  22066618.47148
 115960870.22148       402.00048       194.00048       184.00048
 123090753.86448  95914888.07948  23423386.09648  23423385.78348  23423385.32248
 123090755.35948       245.00048       184.00048       307.00048
 130822501.88746 101939630.34946  24894687.86547  24894687.15246  24894687.21246
 130822504.38947        73.00047        24.00046        43.00046
 112929131.44148  87996728.36648  21489698.65648  21489697.64448  21489697.26348
 112929136.93948       427.00048       162.00048       178.00048
 116046757.11548  90426049.04848  22082961.84748  22082961.46848  22082961.13748
 116046758.61348       374.00048       173.00048       190.00048
 118510162.87548  92345589.14249  22551734.72248  22551734.54548  22551736.49549
 118510164.37448       337.00048       390.00048       833.00049
 23 06 21 06 23 20.0000000  0  8 01 02 14 15 17 21 23 24
 124063917.51746  96673202.17347  23608574.49948  23608574.38646  23608577.02147
 124063917.02048       187.00048        28.00046        91.00047
 115803346.00548  90236370.86248  22036643.33248  22036642.19948  22036640.39048
 115803351.50448       378.00048       110.00048       252.00048
 116296019.60048  90620278.03748  22130395.87248  22130395.46148  22130395.43448
 116296020.08548       388.00048       179.00048       176.00048
 123228815.11748  96022468.18848  23449658.32048  23449658.08448  23449657.62048
 123228816.61148       239.00048       176.00048       302.00048
 131168096.57046 102208924.90546  24960452.27147  24960451.71146  24960451.78846
 131168099.09847        70.00047        24.00046        37.00046
 113013641.73648  88062580.58748  21505780.45548  21505779.35448  21505778.97748
 113013647.23348       422.00048       160.00048       177.00048
 115870211.43348  90288481.06048  22049366.22448  22049365.98448  22049365.60948
 115870212.92948       379.00048       177.00048       195.00048
 118402468.06448  92261671.21449  22531240.97648  22531240.79748  22531242.72649
 118402469.56248       340.00048       395.00048       840.00049
 23 06 21 06 23 30.0000000  0  8 01 02 14 15 17 21 23 24
 124256070.07946  96822931.42947  23645140.08848  23645139.26346  23645142.40847
 124256069.58348       184.00048        28.00046        85.00047
 115932582.42048  90337074.58948  22061236.17248  22061235.07548  22061233.20148
 115932587.91948       371.00048       107.00048       247.00048
 116633973.47248  90883618.73948  22194706.24248  22194705.95348  22194705.83648
 116633973.95748       370.00048       164.00048       166.00048
 123370637.96348  96132979.53948  23476646.28848  23476646.00048  23476645.54548
 123370639.46048       235.00048       170.00048       293.00048
 131514108.98146 102478544.89646  25026296.03047  25026295.68946  25026295.70446
 131514111.46947        66.00047        22.00046        36.00046
 113100924.81748  88130593.41048  21522389.89348  21522388.75648  21522388.36348
 113100930.31848       417.00048       157.00048       173.00048
 115697589.18248  90153970.24448  22016517.21248  22016517.06148  22016516.59848
 115697590.67548       385.00048       183.00048       202.00048
 118299876.99448  92181730.19049  22511718.55148  22511718.30048  22511720.21749
 118299878.49248       341.00048       400.00048       852.00049
 23 06 21 06 23 40.0000000  0  8 01 02 14 15 17 21 23 24
 124449851.51446  96973929.93847  23682015.54448  23682014.72746  23682017.76047
 124449851.01748       182.00048        30.00046        85.00047
 116064248.05148  90439671.19848  22086291.21248  22086290.13748  22086288.38448
 116064253.55248       363.00048       102.00048       241.00048
 116974662.40848  91149090.65148  22259537.17648  22259536.87448  22259536.80648
 116974662.89548       354.00048       151.00048       160.00048
 123516181.75948  96246390.30448  23504342.42248  23504342.04948  23504341.64448
 123516183.25748       232.00048       163.00048       285.00048
 131860501.51646 102748461.18246  25092211.95147  25092211.60446  25092212.00746
 131860503.99847        64.00047        22.00046        33.00046
 113190968.69548  88200757.47848  21539524.68148  21539523.52248  21539523.19548
 113190974.19048       413.00048       153.00048       173.00048
 115528922.74548  90022541.88848  21984421.06148  21984420.81348  21984420.48148
 115528924.23748       392.00048       188.00048       209.00048
 118202420.18148  92105789.86749  22493173.08648  22493172.88948  22493174.76449
 118202421.67448       344.00048       402.00048       869.00049
 23 06 21 06 23 50.0000000  0  8 01 02 14 15 17 21 23 24
 124645239.22146  97126180.08147  23719196.36348  23719196.12446  23719198.82647
 124645238.69348       179.00048        28.00046        81.00047
 116198325.13647  90544146.80148  22111805.31248  22111804.10447  22111802.45648
 116198330.63148       358.00048        98.00047       237.00048
 117318017.56948  91416640.10648  22324875.44048  22324875.20548  22324875.10548
 117318018.05148       338.00048       136.00048       155.00048
 123665405.36448  96362668.43748  23532738.76948  23532738.42948  23532737.87548
 123665406.85648       227.00048       158.00048       274.00048
 132207235.85546 103018643.84346  25158193.28847  25158193.26346  25158193.32746
 132207238.34547        60.00047        21.00046        30.00046
 113283760.89948  88273063.03548  21557182.50148  21557181.40348  21557180.99848
 113283766.39748       409.00048       150.00048       170.00048
 115364243.36448  89894220.23748  21953083.72248  21953083.44248  21953083.12848
 115364244.85748       400.00048       196.00048       217.00048
 118110126.48448  92033872.67249  22475610.00348  22475609.92248  22475611.90549
 118110127.98248       344.00048       404.00048       886.00049
 23 06 21 06 24 00.0000000  0  8 01 02 14 15 17 21 23 24
 124842210.32346  97279664.02247  23756678.96648  23756678.43846  23756681.28647
 124842209.81448       177.00048        28.00046        78.00047
 116334795.81147  90650487.56648  22137774.75148  22137773.68147  22137771.97148
 116334801.31348       350.00048        94.00047       232.00048
 117663970.42548  91686213.76048  22390708.10148  22390707.84148  22390707.76048
 117663970.91248       320.00048       125.00048       150.00048
 123818267.07648  96481781.49248  23561827.32948  23561826.98548  23561826.46748
 123818268.57148       225.00048       154.00048       264.00048
 132554274.34546 103289063.44146  25224233.35347  25224232.30246  25224233.09246
 132554276.85847        58.00047        21.00046        27.00046
 113379288.93048  88347500.46248  21575360.72448  21575359.67948  21575359.36248
 113379294.42548       405.00048       149.00048       167.00048
 115203582.13048  89769029.70748  21922510.87248  21922510.53348  21922510.25548
 115203583.62548       408.00048       200.00048       223.00048
 118023023.79648  91966000.44049  22459034.99548  22459034.87448  22459036.79849
 118023025.29348       346.00048       407.00048       907.00049
 23 06 21 06 24 10.0000000  0  8 01 02 14 15 17 21 23 24
 125040742.27046  97434364.25147  23794458.38648  23794457.85446  23794460.52047
 125040741.80248       174.00048        29.00046        76.00047
 116473641.88047  90758679.30048  22164196.33848  22164195.20647  22164193.48248
 116473647.37948       343.00048        92.00047       226.00048
 118012452.48948  91957758.23048  22457022.02348  22457021.66948  22457021.56148
 118012452.97948       306.00048       112.00048       143.00048
 123974724.10448  96603696.01148  23591599.93848  23591599.77248  23591599.29248
 123974725.59948       221.00048       151.00048       255.00048
 132901580.01846 103559691.20146  25290322.76547  25290321.96946  25290323.10746
 132901582.51347        55.00047        21.00046        27.00046
 113477539.59948  88424059.42448  21594057.29748  21594056.19748  21594055.87348
 113477545.09748       401.00048       144.00048       165.00048
 115046968.47048  89646993.01748  21892708.23648  21892708.05648  21892707.71748
 115046969.96348       414.00048       209.00048       232.00048
 117941138.18748  91902193.46549  22443452.82148  22443452.57848  22443454.50549
 117941139.68448       347.00048       411.00048       925.00049
 23 06 21 06 24 20.0000000  0  8 01 02 14 15 21 23 24 32
 125240812.10446  97590262.72247  23832530.41148  23832529.81046  23832532.65747
 125240811.58848       172.00048        29.00046        74.00047
 116614844.70247  90868707.41448  22191066.38648  22191065.23547  22191063.59548
 116614850.19548       337.00048        88.00047       218.00048
 118363395.34948  92231220.18248  22523804.32848  22523803.93848  22523803.88948
 118363395.83948       292.00048       103.00048       141.00048
 124134733.49648  96728378.70848  23622048.68648  23622048.63148  23622048.02648
 124134734.98948       218.00048       145.00048       244.00048
 113578499.24348  88502729.19048  21613269.27348  21613268.25248  21613267.89548
 113578504.74348       397.00048       142.00048       164.00048
 114894431.60648  89528133.09148  21863681.51048  21863681.23148  21863680.97248
 114894433.10248       419.00048       214.00048       236.00048
 117864494.36848  91842471.00749  22428867.88148  22428867.74548  22428869.69249
 117864495.86448       349.00048       416.00048       948.00049
 123186488.11656  95989479.21257  23441609.39348  23441609.28546  23441611.31747
 123186488.61758       186.00048        30.00046        57.00047
 23 06 21 06 24 30.0000000  0  8 01 02 14 15 21 23 24 32
 125442397.16846  97747342.00847  23870890.68748  23870889.93446  23870893.10047
 125442396.65648       170.00048        27.00046        71.00047
 116758385.85947  90980557.71848  22218381.42948  22218380.32447  22218378.48148
 116758391.36148       331.00048        87.00047       216.00048
 118716731.06447  92506546.72748  22591041.71848  22591041.39147  22591041.46048
 118716731.55048       280.00048        94.00047       136.00048
 124298251.22848  96855795.23848  23653165.09848  23653164.82648  23653164.33848
 124298252.72748       215.00048       139.00048       233.00048
 113682154.52048  88583499.60948  21632994.19048  21632993.13548  21632992.74048
 113682160.01648       394.00048       139.00048       160.00048
 114745999.18248  89412471.17348  21835435.99348  21835435.78348  21835435.44548
 114746000.67648       423.00048       217.00048       243.00048
 117793115.53848  91786851.13649  22415285.04948  22415284.82748  22415286.75949
 117793117.03548       352.00048       422.00048       960.00049
 122793288.10746  95683089.51647  23366786.16448  23366785.81546  23366787.84347
 122793288.58948       198.00048        32.00046        60.00047
 23 06 21 06 24 40.0000000  0  8 01 02 14 15 21 23 24 32
 125645474.06846  97905583.59547  23909535.03048  23909534.62846  23909537.46347
 125645473.55248       166.00048        26.00046        70.00047
 116904245.68847  91094214.53348  22246137.60748  22246136.58647  22246134.83548
 116904251.18148       326.00048        83.00047       209.00048
 119072391.44447  92783684.58348  22658721.79448  22658721.44347  22658721.37048
 119072391.92448       269.00048        86.00047       134.00048
 124465231.92448  96985909.87448  23684940.60848  23684940.35248  23684939.86948
 124465233.41748       211.00048       133.00048       225.00048
 113788490.19648  88666358.30748  21653229.49548  21653228.29748  21653228.06148
 113788495.69048       389.00048       136.00048       158.00048
 114601699.53348  89300029.91248  21807976.70248  21807976.45448  21807976.19148
 114601701.03048       426.00048       222.00048       246.00048
 117727022.90948  91735350.12849  22402708.16148  22402707.99448  22402710.00449
 117727024.40548       355.00048       427.00048       972.00049
 122402030.41846  95378213.43647  23292332.28348  23292331.81546  23292334.02747
 122402030.90048       209.00048        38.00046        65.00047
 23 06 21 06 24 50.0000000  0  8 01 02 14 15 21 23 24 32
 125850019.98646  98064969.80947  23948458.99448  23948458.75646  23948461.41147
 125850019.52148       164.00048        26.00046        64.00047
 117052405.52347  91209663.59048  22274331.68148  22274330.55047  22274328.94148
 117052411.02248       321.00048        81.00047       204.00048
 119430309.14647  93062581.42048  22726831.32848  22726830.99747  22726830.93848
 119430309.62548       258.00048        79.00047       133.00048
 124635631.06648  97118688.30148  23717366.48248  23717366.45348  23717365.89848
 124635632.56048       205.00048       130.00048       216.00048
 113897492.83948  88751295.37148  21673972.07748  21673970.91148  21673970.60848
 113897498.33548       384.00048       132.00048       156.00048
 114461558.47248  89190829.10448  21781308.70848  21781308.44748  21781308.21148
 114461559.96748       428.00048       224.00048       247.00048
 117666237.71948  91687985.03649  22391141.11348  22391141.02048  22391142.98949
 117666239.21648       358.00048       432.00048       981.00049
 122012794.18346  95074912.51247  23218263.01648  23218263.08146  23218264.89547
 122012794.68148       225.00048        39.00046        70.00047
 23 06 21 06 25 00.0000000  0  8 01 02 14 15 21 23 24 32
 126056012.54246  98225483.38747  23987658.07348  23987657.69946  23987660.48647
 126056012.03648       161.00048        26.00046        65.00047
 117202846.26347  91326890.14248  22302959.58448  22302958.38747  22302956.83948
 117202851.75648       315.00048        75.00047       196.00048
 119790416.64947  93343184.60148  22795357.58548  22795357.28547  22795357.26548
 119790417.13648       247.00048        76.00047       131.00048
 124809402.81248  97254094.84848  23750434.49948  23750434.02748  23750433.53248
 124809404.30948       200.00048       123.00048       209.00048
 114009147.26348  88838298.81948  21695219.17248  21695218.04848  21695217.75748
 114009152.75848       379.00048       129.00048       153.00048
 114325601.47848  89084888.64948  21755436.85248  21755436.64348  21755436.37948
 114325602.97148       430.00048       224.00048       247.00048
 117610777.92348  91644769.52049  22380587.55248  22380587.39348  22380589.39449
 117610779.42048       358.00048       435.00048       986.00049
 121625659.24246  94773248.97047  23144593.68548  23144593.60446  23144595.55647
 121625659.74148       237.00048        43.00046        75.00047
 23 06 21 06 25 10.0000000  0  8 01 02 14 15 21 23 24 32
 126263428.39046  98387106.09747  24027127.84348  24027127.60646  24027130.58947
 126263427.87148       159.00048        24.00046        62.00047
 117355547.91247  91445878.44148  22332017.68348  22332016.66647  22332014.97348
 117355553.40648       311.00048        76.00047       192.00048
 120152646.92847  93625441.89848  22864287.77048  22864287.52747  22864287.38548
 120152647.41048       240.00048        69.00047       131.00048
 124986500.39448  97392092.94548  23784134.55748  23784134.63948  23784134.11148
 124986501.88948       195.00048       117.00048       201.00048
 114123438.16748  88927356.69148  21716967.99648  21716966.92048  21716966.61148
 114123443.66248       374.00048       128.00048       152.00048
 114193853.00348  88982227.53048  21730365.93748  21730365.73448  21730365.43548
 114193854.49448       433.00048       229.00048       248.00048
 117560661.14348  91605717.54949  22371050.60048  22371050.42748  22371052.43649
 117560662.64048       359.00048       438.00048       994.00049
 121240705.84546  94473285.32847  23071339.45548  23071339.41446  23071341.26747
 121240706.33548       249.00048        46.00046        83.00047
 23 06 21 06 25 20.0000000  0  8 01 02 14 15 21 23 24 32
 126472244.33346  98549819.77547  24066864.55948  24066864.14746  24066866.89947
 126472243.82548       156.00048        25.00046        58.00047
 117510490.60447  91566612.99848  22361502.34448  22361501.23147  22361499.58148
 117510496.10348       305.00048        73.00047       185.00048
 120516933.08647  93909301.19248  22933609.14548  22933608.82347  22933608.78148
 120516933.56848       231.00048        66.00047       128.00048
 125166876.50448  97532645.59148  23818459.24348  23818459.11148  23818458.71848
 125166877.99948       187.00048       109.00048       192.00048
 114240349.85048  89018456.69948  21739215.63248  21739214.51648  21739214.11348
 114240355.35048       368.00048       121.00048       149.00048
 114066336.45248  88882863.87948  21706100.43948  21706100.23748  21706099.99048
 114066337.94548       437.00048       234.00048       251.00048
 117515902.34948  91570840.48849  22362533.30248  22362533.17648  22362535.20349
 117515903.84748       359.00048       436.00048      1000.00049
 120858014.39746  94175084.13447  22998515.71448  22998515.68046  22998517.46647
 120858014.88548       262.00048        48.00046        88.00047
 23 06 21 06 25 30.0000000  0  8 01 02 14 15 21 23 24 32
 126682437.42246  98713606.60447  24106863.17248  24106863.00146  24106865.46047
 126682436.92048       153.00048        25.00046        57.00047
 117667654.33247  91689078.25548  22391409.68448  22391408.60547  22391406.89548
 117667659.83348       300.00048        71.00047       176.00048
 120883208.51847  94194710.56348  23003308.97648  23003308.81047  23003308.80548
 120883209.00448       226.00048        61.00047       125.00048
 125350484.23348  97675716.56748  23853398.72948  23853398.48948  23853398.06348
 125350485.72648       182.00048       101.00048       187.00048
 114359866.50848  89111586.60148  21761958.79248  21761957.56348  21761957.37148
 114359872.00648       361.00048       118.00048       145.00048
 113943074.99548  88786816.01848  21682644.49148  21682644.29948  21682644.03848
 113943076.48848       441.00048       237.00048       250.00048
 117476515.97248  91540149.81549  22355038.42648  22355038.18948  22355040.22149
 117476517.47048       359.00048       435.00048      1006.00049
 120477666.38947  93878709.11247  22926137.85448  22926137.76747  22926139.57047
 120477666.88948       272.00048        55.00047        93.00047
 23 06 21 06 25 40.0000000  0  8 01 02 14 15 21 23 24 32
 126893984.53546  98878448.52047  24147118.93048  24147118.29946  24147121.38247
 126893984.00648       150.00048        24.00046        53.00047
 117827018.74447  91813258.37248  22421735.58448  22421734.57647  22421732.84048
 117827024.24648       294.00048        71.00047       171.00048
 121251407.00947  94481618.42648  23073374.71348  23073374.57147  23073374.64248
 121251407.49048       219.00048        60.00047       124.00048
 125537274.81747  97821267.66248  23888943.82048  23888943.40247  23888943.22448
 125537276.31348       176.00048        97.00047       183.00048
 114481971.87048  89206733.69048  21785194.63848  21785193.46148  21785193.16448
 114481977.36648       354.00048       114.00048       143.00048
 113824090.01748  88694100.47148  21660002.47448  21660002.18748  21660001.95748
 113824091.50948       446.00048       240.00048       250.00048
 117442514.26848  91513655.01949  22348568.07548  22348567.83948  22348569.87049
 117442515.76448       357.00048       434.00048      1013.00049
 120099743.10347  93584223.45548  22854221.38648  22854221.39447  22854223.25448
 120099743.59648       280.00048        57.00047       104.00048
 23 06 21 06 25 50.0000000  0  8 01 02 14 15 21 23 24 32
 127106862.22346  99044327.18746  24187628.60048  24187627.87346  24187630.87846
 127106861.72348       147.00048        24.00046        49.00046
 117988563.11947  91939137.05248  22452476.40148  22452475.36247  22452473.73248
 117988568.61648       288.00048        66.00047       166.00048
 121621462.71947  94769973.52848  23143794.11048  23143793.89147  23143793.98748
 121621463.19848       213.00048        56.00047       121.00048
 125727199.81147  97969261.17248  23925085.52148  23925084.99447  23925084.62948
 125727201.30748       170.00048        88.00047       175.00048
 114606648.93948  89303884.59048  21808919.82448  21808918.82048  21808918.45548
 114606654.43948       347.00048       108.00048       140.00048
 113709402.39248  88604733.56748  21638178.11748  21638177.83648  21638177.55548
 113709403.88648       449.00048       242.00048       248.00048
 117413908.12748  91491364.60849  22343124.42448  22343124.21048  22343126.22549
 117413909.62448       356.00048       430.00048      1011.00049
 119724326.45647  93291691.04448  22782781.98048  22782781.54247  22782783.81048
 119724326.94748       289.00048        59.00047       113.00048
 23 06 21 06 26 00.0000000  0  8 01 02 14 15 21 23 24 32
 127321047.83746  99211225.11546  24228386.41648  24228386.19746  24228388.92746
 127321047.33548       144.00048        25.00046        45.00046
 118152267.13647  92066698.65748  22483628.33948  22483627.05647  22483625.51948
 118152272.63248       283.00048        64.00047       159.00048
 121993309.94547  95059724.64248  23214554.27848  23214554.16547  23214554.03448
 121993310.42048       208.00048        53.00047       118.00048
 125920210.13247  98119658.83348  23961813.69048  23961813.73947  23961813.34248
 125920211.62748       165.00048        83.00047       168.00048
 114733881.45148  89403026.83848  21833131.34648  21833130.32748  21833129.98148
 114733886.94948       340.00048       105.00048       136.00048
 113599031.57848  88518730.35648  21617175.17148  21617174.95348  21617174.58648
 113599033.06748       450.00048       246.00048       248.00048
 117390706.47448  91473285.40649  22338709.29048  22338709.07448  22338711.08049
 117390707.97048       356.00048       428.00048      1012.00049
 119351498.52147  93001175.79948  22711835.13948  22711835.10947  22711836.94648
 119351499.01548       296.00048        64.00047       122.00048
 23 06 21 06 26 10.0000000  0  8 01 02 14 15 21 23 24 32
 127536517.74946  99379123.71446  24269388.84748  24269388.69246  24269391.51646
 127536517.25948       141.00048        23.00046        43.00046
 118318109.66247  92195926.56348  22515187.10348  22515185.70147  22515184.37748
 118318115.15248       276.00048        61.00047       153.00048
 122366883.23747  95350820.67648  23285643.09548  23285642.72647  23285642.79948
 122366883.71548       202.00048        51.00047       115.00048
 126116255.94747  98272421.73148  23999120.17548  23999119.84147  23999119.61348
 126116257.44448       160.00048        78.00047       163.00048
 114863651.99747  89504146.71748  21857825.86648  21857824.76547  21857824.50448
 114863657.49648       333.00048        98.00047       134.00048
 113492996.32048  88436105.46648  21596997.32848  21596997.08148  21596996.83348
 113492997.81248       453.00048       247.00048       248.00048
 117372917.02148  91459423.48049  22335324.00748  22335323.84248  22335325.88549
 117372918.51648       355.00048       427.00048      1011.00049
 118981341.96347  92712742.17348  22641396.67348  22641396.61647  22641398.38348
 118981342.46548       303.00048        66.00047       132.00048
 23 06 21 06 26 20.0000000  0  8 01 02 14 15 21 23 24 32
 127753249.02246  99548005.19446  24310631.62048  24310631.33246  24310634.13246
 127753248.51848       139.00048        23.00046        41.00046
 118486069.81047  92326804.59448  22547148.86448  22547147.85847  22547146.03548
 118486075.29848       269.00048        59.00047       146.00048
 122742117.79846  95643211.21148  23357047.70748  23357047.40646  23357047.49348
 122742118.28048       196.00048        48.00046       111.00048
 126315287.53347  98427511.31148  24036994.94148  24036994.33547  24036994.00348
 126315289.03048       156.00048        75.00047       156.00048
 114995943.07047  89607230.66348  21883000.05048  21882998.98747  21882998.75348
 114995948.56948       325.00048        94.00047       133.00048
 113391314.43548  88356872.84948  21577647.86548  21577647.65248  21577647.34548
 113391315.92548       453.00048       249.00048       250.00048
 117360545.83248  91449783.60949  22332969.88848  22332969.68248  22332971.69949
 117360547.32848       353.00048       423.00048       998.00049
 118613939.56947  92426454.63248  22571482.24848  22571482.15447  22571484.10048
 118613940.06248       312.00048        69.00047       141.00048
 23 06 21 06 26 30.0000000  0  8 01 02 14 15 21 23 24 32
 127971218.58246  99717851.63646  24352109.92748  24352109.21646  24352112.49846
 127971218.06348       137.00048        22.00046        40.00046
 118656126.32747  92459316.21348  22579509.38248  22579508.46747  22579506.62548
 118656131.82048       264.00048        56.00047       141.00048
 123118949.12346  95936845.99448  23428756.59648  23428755.82846  23428756.13848
 123118949.61548       191.00048        44.00046       104.00048
 126517254.15347  98584887.91548  24075427.41048  24075427.45647  24075426.95848
 126517255.65548       152.00048        72.00047       149.00048
 115130736.93647  89712264.88948  21908650.42248  21908649.26347  21908649.05948
 115130742.42448       319.00048        92.00047       126.00048
 113294002.59048  88281045.49148  21559129.98948  21559129.79548  21559129.48148
 113294004.08248       454.00048       250.00048       250.00048
 117353597.29748  91444369.21149  22331647.54648  22331647.37748  22331649.37749
 117353598.79248       353.00048       419.00048       989.00049
 118249374.46047  92142377.97448  22502107.85948  22502107.74747  22502109.62248
 118249374.96248       323.00048        75.00047       151.00048
 23 06 21 06 26 40.0000000  0  8 01 02 14 15 21 23 24 32
 128190403.00346  99888644.72046  24393819.19348  24393818.70046  24393821.66246
 128190402.49748       133.00048        23.00046        38.00046
 118828257.65447  92593444.54348  22612264.92948  22612263.89447  22612262.09548
 118828263.14048       258.00048        53.00047       134.00048
 123497313.03646  96231674.99748  23500756.45048  23500756.39246  23500756.38348
 123497313.51648       185.00048        43.00046       102.00048
 126722104.99247  98744511.96548  24114409.35448  24114409.29047  24114408.81848
 126722106.48748       149.00048        68.00047       143.00048
 115268015.36847  89819235.13748  21934773.66648  21934772.50447  21934772.28948
 115268020.87048       314.00048        88.00047       124.00048
 113201076.33748  88208635.47448  21541446.65648  21541446.47548  21541446.17348
 113201077.82648       456.00048       249.00048       253.00048
 117352074.04348  91443182.29449  22331357.64648  22331357.49248  22331359.48649
 117352075.53948       351.00048       416.00048       978.00049
 117887730.03047  91860577.12248  22433289.14048  22433289.08447  22433290.92648
 117887730.51748       335.00048        81.00047       161.00048
 23 06 21 06 26 50.0000000  0  9 01 02 10 14 15 21 23 24 32
 128410779.31346 100060366.56546  24435755.33248  24435754.98846  24435757.89746
 128410778.79948       130.00048        21.00046        36.00046
 119002442.28546  92729172.87348  22645411.10548  22645409.89946  22645408.34548
 119002447.77348       254.00048        50.00046       129.00048
 104168326.99659  81170133.26959  19822574.10749  19822573.68849  19822575.69349
 104168329.49159      1178.00049      4882.00049      3288.00049
 123877145.67146  96527648.46547  23573036.41548  23573036.05246  23573036.13847
 123877146.14448       179.00048        41.00046        97.00047
 126929788.72547  98906343.47148  24153930.28848  24153930.12247  24153929.62148
 126929790.21648       146.00048        64.00047       136.00048
 115407760.01047  89928127.10848  21961366.06348  21961364.91647  21961364.62748
 115407765.50848       307.00048        86.00047       123.00048
 113112550.24548  88139654.16248  21524600.65848  21524600.46548  21524600.10948
 113112551.73548       458.00048       254.00048       254.00048
 117355977.32948  91446223.90349  22332100.43448  22332100.19748  22332102.16949
 117355978.82648       350.00048       413.00048       965.00049
 117529089.90147  91581117.28948  22365042.20648  22365042.05847  22365043.91348
 117529090.39448       349.00048        84.00047       167.00048
 23 06 21 06 27 00.0000000  0  9 01 02 10 14 15 21 23 24 32
 128632324.16246 100232998.98146  24477913.82348  24477913.71946  24477916.47146
 128632323.66148       127.00048        22.00046        34.00046
 119178658.45946  92866484.21448  22678943.94448  22678942.62646  22678941.10748
 119178663.97248       248.00048        50.00046       126.00048
 104056524.99249  81083014.75449  19801298.96949  19801298.51949  19801300.53749
 104056527.48649      1183.00049      4922.00049      3318.00049
 124258383.54946  96824716.91947  23645583.76248  23645583.20146  23645583.39447
 124258384.05148       174.00048        40.00046        93.00047
 127140253.65847  99070342.12548  24193980.65048  24193980.07247  24193979.73448
 127140255.14748       144.00048        65.00047       129.00048
 115549952.15347  90038926.18348  21988424.30748  21988423.21647  21988422.90148
 115549957.64948       302.00048        82.00047       119.00048
 113028437.60148  88074111.79348  21508594.69148  21508594.36948  21508594.08848
 113028439.08948       460.00048       256.00048       256.00048
 117365306.19848  91453493.07049  22333875.67848  22333875.48148  22333877.43349
 117365307.69448       349.00048       409.00048       956.00049
 117173538.00447  91304063.89348  22297382.91748  22297382.94047  22297384.67548
 117173538.50448       363.00048        91.00047       177.00048
 23 06 21 06 27 10.0000000  0 10 01 02 10 14 15 21 23 24 27 32
 128855014.29946 100406523.77646  24520290.42348  24520290.47846  24520293.05246
 128855013.81348       125.00048        22.00046        35.00046
 119356884.20346  93005361.37748  22712859.16148  22712857.80746  22712856.38548
 119356889.69148       243.00048        49.00046       119.00048
 103950348.18349  81000279.56249  19781094.21749  19781093.75449  19781095.77849
 103950350.67849      1190.00049      4978.00049      3352.00049
 124640963.72446  97122831.29047  23718386.25948  23718385.62846  23718386.00747
 124640964.21248       167.00048        38.00046        88.00047
 127353447.68347  99236467.27248  24234549.92548  24234549.69047  24234549.32148
 127353449.16948       141.00048        62.00047       124.00048
 115694572.80347  90151617.57548  22015944.66348  22015943.67947  22015943.31448
 115694578.29648       297.00048        81.00047       116.00048
 112948751.07748  88012018.38948  21493430.82848  21493430.54548  21493430.26948
 112948752.56648       463.00048       258.00048       260.00048
 117380058.99548  91464988.78049  22336682.95148  22336682.81648  22336684.79149
 117380060.49048       348.00048       409.00048       957.00049
 124785283.98956  97235296.99657  23745851.11148  23745850.11646  23745852.80947
 124785289.49858       124.00048        23.00046        51.00047
 116821158.45847  91029482.52148  22230327.32948  22230327.13047  22230329.01148
 116821158.95248       378.00048       100.00047       182.00048
 23 06 21 06 27 20.0000000  0 10 01 02 10 14 15 21 23 24 27 32
 129078826.77546 100580923.14446  24562880.62048  24562880.27146  24562883.13346
 129078826.27548       122.00048        21.00046        31.00046
 119537097.60446  93145787.46048  22747152.71648  22747151.43246  22747149.85148
 119537103.10948       238.00048        46.00046       118.00048
 103849827.11249  80921951.52949  19761965.62549  19761965.18449  19761967.17649
 103849829.60749      1200.00049      5000.00049      3380.00049
 125024823.66246  97421942.90947  23791432.36448  23791432.09646  23791432.10447
 125024824.13248       162.00048        36.00046        81.00047
 127569318.82047  99404678.58548  24275628.92848  24275628.57547  24275628.13148
 127569320.31048       137.00048        59.00047       116.00048
 115841602.97547  90266186.58348  22043923.67248  22043922.55247  22043922.35448
 115841608.47148       292.00048        78.00047       113.00048
 112873502.12748  87953382.89948  21479111.36448  21479111.19148  21479110.81548
 112873503.61748       466.00048       262.00048       263.00048
 117400231.83248  91480707.92949  22340521.67448  22340521.51448  22340523.48349
 117400233.33148       348.00048       407.00048       954.00049
 124580029.93946  97075358.84347  23706792.62548  23706791.28246  23706794.29747
 124580035.44248       126.00048        24.00046        54.00047
 116472035.27848  90757438.56048  22163891.29548  22163891.28648  22163893.04848
 116472035.77348       391.00048       106.00048       188.00048
 23 06 21 06 27 30.0000000  0 10 01 02 10 14 15 21 23 24 27 32
 129303738.26746 100756178.88746  24605679.75148  24605679.47746  24605682.28646
 129303737.77848       119.00048        21.00046        32.00046
 119719276.36846  93287744.96648  22781819.98648  22781818.89946  22781817.27848
 119719281.87448       234.00048        46.00046       113.00048
 103754990.87249  80848053.15549  19743918.88549  19743918.43949  19743920.44149
 103754993.36649      1210.00049      5000.00049      3422.00049
 125409901.03946  97722003.17147  23864710.10148  23864710.00446  23864709.83947
 125409901.50048       156.00048        32.00046        77.00047
 127787814.25147  99574934.77048  24317207.25248  24317206.92647  24317206.56348
 127787815.74848       134.00048        55.00047       110.00048
 115991022.99347  90382617.78848  22072357.32348  22072356.21247  22072355.91448
 115991028.48148       286.00048        75.00047       109.00048
 112802700.80048  87898213.04648  21465638.36848  21465638.13648  21465637.75448
 112802702.28848       468.00048       263.00048       265.00048
 117425819.22848  91500646.17949  22345390.76948  22345390.63048  22345392.58249
 117425820.72448       348.00048       405.00048       954.00049
 124375881.31246  96916282.07047  23667944.34048  23667943.09046  23667946.02947
 124375886.81648       129.00048        24.00046        55.00047
 116126252.79648  90487997.71748  22098091.06348  22098091.07648  22098092.73848
 116126253.28848       404.00048       113.00048       194.00048
 23 06 21 06 27 40.0000000  0 10 01 02 10 14 15 21 23 24 27 32
 129529725.80946 100932273.15346  24648683.87548  24648682.87546  24648685.83946
 129529725.30448       116.00048        22.00046        30.00046
 119903398.25346  93431216.62648  22816857.44048  22816856.08146  22816854.54948
 119903403.74248       229.00048        45.00046       109.00048
 103665866.86549  80778605.96349  19726959.11249  19726958.64849  19726960.63149
 103665869.36049      1219.00049      5000.00049      3468.00049
 125796134.14846  98022964.08647  23938207.62048  23938207.23646  23938207.74647
 125796134.64548       150.00048        31.00046        74.00047
 128008881.36747  99747194.97048  24359274.83148  24359274.56947  24359274.09648
 128008882.85948       131.00048        54.00047       104.00048
 116142813.21747  90500895.97048  22101242.03648  22101241.04247  22101240.52748
 116142818.72248       282.00048        73.00047       105.00048
 112736356.48648  87846516.26248  21453013.28048  21453013.11148  21453012.78748
 112736357.97348       470.00048       264.00048       266.00048
 117456814.26548  91524798.22449  22351288.92848  22351288.74248  22351290.69149
 117456815.76348       346.00048       402.00048       953.00049
 124172862.47146  96758085.62047  23629310.96948  23629310.49746  23629312.49747
 124172867.96048       131.00048        24.00046        57.00047
 115783895.48948  90221225.87548  22032942.53448  22032942.38448  22032944.18848
 115783895.98448       416.00048       121.00048       204.00048
 23 06 21 06 27 50.0000000  0 10 01 02 10 14 15 21 23 24 27 32
 129756766.23846 101109187.93346  24691888.04248  24691887.13046  24691890.23346
 129756765.75148       113.00048        21.00046        30.00046
 120089440.76546  93576184.92548  22852259.92848  22852258.41446  22852257.05148
 120089446.26348       225.00048        42.00046       106.00048
 103582481.05049  80713630.06649  19711091.28949  19711090.81049  19711092.78149
 103582483.54449      1227.00049      5000.00049      3521.00049
 126183461.66146  98324777.78347  24011913.85748  24011913.34546  24011913.43747
 126183462.16848       144.00048        30.00046        66.00047
 128232466.63047  99921417.31747  24401821.55948  24401821.19547  24401820.83747
 128232468.12048       128.00048        52.00047        97.00047
 116296953.67447  90621005.51248  22130573.84348  22130572.73747  22130572.48648
 116296959.17448       276.00048        72.00047       101.00048
 112674477.11848  87798298.66248  21441238.03448  21441237.81048  21441237.43948
 112674478.60948       470.00048       267.00048       272.00048
 117493208.27648  91553157.25549  22358214.48748  22358214.20048  22358216.19849
 117493209.77248       345.00048       400.00048       956.00049
 123970997.77646  96600788.45747  23590897.64348  23590897.05146  23590899.07747
 123971003.26648       134.00048        23.00046        60.00047
 115445047.64548  89957188.60348  21968461.94048  21968461.86148  21968463.56248
 115445048.14048       427.00048       126.00048       210.00048
 23 06 21 06 28 00.0000000  0 10 01 02 10 14 15 21 23 24 27 32
 129984836.28146 101286904.92046  24735287.83948  24735288.04846  24735290.28346
 129984835.77748       111.00048        21.00046        28.00046
 120277381.19446  93722632.06048  22888023.79848  22888022.75246  22888020.82648
 120277386.67248       222.00048        41.00046       102.00048
 103504857.59049  80653144.26949  19696320.00349  19696319.54749  19696321.51949
 103504860.08549      1235.00049      5000.00049      3579.00049
 126571822.58746  98627396.75147  24085816.39548  24085816.20446  24085816.25647
 126571823.09548       138.00048        28.00046        62.00047
 128458516.72747 100097560.32147  24444837.62148  24444837.12547  24444836.62147
 128458518.22848       125.00048        51.00047        93.00047
 116453423.87447  90742930.40147  22160349.12548  22160347.95747  22160347.56047
 116453429.37948       272.00048        68.00047        96.00047
 112617069.52848  87753565.49548  21430313.73348  21430313.48248  21430313.10548
 112617071.01748       472.00048       266.00048       275.00048
 117534990.94248  91585715.23249  22366165.38648  22366165.17448  22366167.10749
 117534992.43948       342.00048       394.00048       951.00049
 123770311.80246  96444409.78647  23552708.33748  23552707.74546  23552709.86447
 123770317.30848       138.00048        24.00046        61.00047
 115109793.87148  89695951.89648  21904665.28848  21904665.11948  21904666.85548
 115109794.36748       439.00048       132.00048       218.00048
 23 06 21 06 28 10.0000000  0 10 01 02 10 14 15 21 23 24 27 32
 130213912.83746 101465406.18446  24778879.91448  24778879.16946  24778882.28846
 130213912.33048       106.00048        22.00046        27.00046
 120467196.69846  93870540.29847  22924144.57748  22924143.26446  22924141.50847
 120467202.20248       219.00048        40.00046        99.00047
 103433019.07949  80597166.21149  19682649.58149  19682649.13449  19682651.11749
 103433021.57449      1241.00049      5000.00049      3634.00049
 126961156.36346  98930773.72547  24159904.00848  24159903.42546  24159903.58047
 126961156.83448       133.00048        27.00046        57.00047
 128686978.05646 100275582.18547  24488312.08748  24488311.80646  24488311.36347
 128686979.54548       124.00048        47.00046        87.00047
 116612203.36247  90866654.69447  22190563.77048  22190562.81847  22190562.33847
 116612208.85748       267.00048        66.00047        92.00047
 112564139.67548  87712321.46348  21420241.46548  21420241.22848  21420240.88748
 112564141.16148       473.00048       268.00048       282.00048
 117582150.40948  91622462.89149  22375139.42848  22375139.28948  22375141.23049
 117582151.90548       338.00048       386.00048       937.00049
 123570829.15046  96288968.75347  23514748.05848  23514747.17146  23514749.55047
 123570834.65348       141.00048        24.00046        64.00047
 114778218.67848  89437581.61248  21841568.70248  21841568.50748  21841570.21848
 114778219.17448       451.00048       141.00048       228.00048
 23 06 21 06 28 20.0000000  0 10 01 02 10 14 15 21 23 24 27 32
 130443972.87746 101644673.80346  24822658.50148  24822657.94746  24822661.05646
 130443972.38148       105.00048        20.00046        29.00046
 120658864.51646  94019891.84447  22960617.65248  22960616.33746  22960614.61947
 120658869.99648       216.00048        37.00046        95.00047
 103366986.55049  80545712.29149  19670084.03149  19670083.56649  19670085.54349
 103366989.04449      1248.00049      5000.00049      3678.00049
 127351402.94246  99234861.99847  24234165.41948  24234164.90646  24234165.03047
 127351403.41848       126.00048        27.00046        53.00047
 128917796.75846 100455440.96247  24532235.45448  24532235.27546  24532234.68447
 128917798.25948       120.00048        47.00046        83.00047
 116773271.49147  90992162.33447  22221214.07748  22221213.19747  22221212.51747
 116773276.98548       261.00048        63.00047        90.00047
 112515692.31748  87674570.27648  21411022.30848  21411022.02148  21411021.73948
 112515693.80548       473.00048       270.00048       287.00048
 117634673.31648  91663389.84949  22385134.23648  22385134.05048  22385135.97949
 117634674.81348       335.00048       377.00048       924.00049
 123372574.45846  96134484.58147  23477021.39148  23477020.60246  23477022.85047
 123372579.97448       144.00048        26.00046        64.00047
 114450406.57448  89182143.60548  21779188.05848  21779187.97448  21779189.63648
 114450407.06748       464.00048       149.00048       239.00048
 23 06 21 06 28 30.0000000  0 10 01 02 10 14 15 21 23 24 27 32
 130674993.38146 101824689.81046  24866620.53248  24866620.12346  24866622.52946
 130674992.89448       103.00048        21.00046        25.00046
 120852361.61446  94170668.81647  22997438.79648  22997437.71946  22997435.81147
 120852367.11648       211.00048        38.00046        92.00047
 103306779.29049  80498797.53849  19658626.96549  19658626.51249  19658628.49349
 103306781.78549      1255.00049      5000.00049      3716.00049
 127742502.72146  99539615.10646  24308589.47948  24308589.36246  24308589.07346
 127742503.21348       120.00048        24.00046        49.00046
 129150918.82046 100637094.54447  24576597.07948  24576596.57046  24576596.42247
 129150920.31148       117.00048        42.00046        77.00047
 116936607.35447  91119437.02947  22252295.92648  22252294.66247  22252294.30547
 116936612.84648       255.00048        61.00047        87.00047
 112471731.09348  87640314.77648  21402656.73048  21402656.45448  21402656.17148
 112471732.57948       475.00048       269.00048       294.00048
 117692544.65048  91708484.40049  22396146.83848  22396146.60048  22396148.51549
 117692546.14748       332.00048       369.00048       910.00049
 123175572.42146  95980976.49047  23439532.97348  23439532.25546  23439534.56247
 123175577.92248       148.00048        25.00046        68.00047
 114126441.90048  88929703.60048  21717539.63948  21717539.46748  21717541.22648
 114126442.39648       477.00048       156.00048       250.00048
 23 06 21 06 28 40.0000000  0 10 01 02 10 14 15 21 23 24 27 32
 130906951.38446 102005436.28946  24910760.48447  24910760.85346  24910762.87746
 130906950.87547        99.00047        20.00046        26.00046
 121047664.99246  94322853.26247  23034603.75548  23034602.90946  23034600.87547
 121047670.49148       209.00048        36.00046        90.00047
 103252414.93849  80456435.69849  19648281.77449  19648281.32349  19648283.30549
 103252417.43349      1263.00049      5000.00049      3731.00049
 128134396.49146  99844986.89746  24383163.98948  24383163.84246  24383163.77246
 128134396.99948       115.00048        26.00046        44.00046
 129386290.03046 100820500.69847  24621387.05448  24621386.38046  24621386.01247
 129386291.51948       114.00048        42.00046        75.00047
 117102189.71147  91248462.24347  22283805.21548  22283804.11547  22283803.56347
 117102195.21248       250.00048        58.00047        82.00047
 112432258.47048  87609556.88048  21395145.31848  21395145.09648  21395144.82748
 112432259.95748       475.00048       270.00048       298.00048
 117755747.79648  91757733.60749  22408173.98048  22408173.76348  22408175.67149
 117755749.29348       327.00048       361.00048       892.00049
 122979847.72146  95828463.73947  23402287.62948  23402287.14546  23402289.45247
 122979853.22948       151.00048        28.00046        68.00047
 113806408.92848  88680327.25748  21656639.33648  21656639.26348  21656640.98548
 113806409.42448       488.00048       164.00048       261.00048
 23 06 21 06 28 50.0000000  0 10 01 02 10 14 15 21 23 24 27 32
 131139823.81446 102186895.34046  24955075.29847  24955075.36446  24955077.33146
 131139823.33347        98.00047        20.00046        25.00046
 121244751.47646  94476427.14247  23072108.17548  23072106.99146  23072105.31147
 121244756.97948       206.00048        36.00046        85.00047
 103203909.28149  80418639.06949  19639051.48149  19639051.02149  19639052.99449
 103203911.77749      1267.00049      5000.00049      3728.00049
 128527025.62446 100150931.67146  24457878.68148  24457878.32846  24457878.71546
 128527026.13248       110.00048        22.00046        41.00046
 129623856.06246 101005617.11947  24666594.07848  24666593.69846  24666593.24147
 129623857.56848       111.00048        39.00046        71.00047
 117269997.18247  91379221.29647  22315737.84048  22315736.60547  22315736.27847
 117270002.67748       245.00048        55.00047        80.00047
 112397275.87148  87582297.70048  21388488.34048  21388488.09948  21388487.84548
 112397277.35848       476.00048       271.00048       302.00048
 117824264.67148  91811123.37649  22421212.37648  22421212.06148  22421213.98649
 117824266.16848       324.00048       353.00048       877.00049
 122785425.18346  95676965.66647  23365290.55248  23365289.55246  23365292.05947
 122785430.70048       154.00048        27.00046        72.00047
 113490391.82348  88434080.15848  21596503.35749  21596503.17448  21596504.94048
 113490392.31649       501.00049       171.00048       272.00048
 23 06 21 06 29 00.0000000  0 10 01 02 10 14 15 21 23 24 27 32
 131373587.77846 102369049.06846  24999559.09047  24999559.02546  24999561.15646
 131373587.29247        94.00047        20.00046        25.00046
 121443597.72646  94631372.25447  23109947.25348  23109946.15246  23109944.52347
 121443603.22648       202.00048        35.00046        81.00047
 103161276.53449  80385418.73249  19630938.73449  19630938.28649  19630940.26349
 103161279.02949      1270.00049      5000.00049      3717.00049
 128920331.76946 100457403.98446  24532722.40648  24532721.95146  24532722.34046
 128920332.28048       105.00048        24.00046        38.00046
 129863562.38346 101192401.24547  24712208.50748  24712208.35046  24712207.70947
 129863563.87548       109.00048        40.00046        69.00047
 117440008.05747  91511697.28047  22348089.88348  22348088.85747  22348088.35047
 117440013.54648       240.00048        54.00047        75.00047
 112366783.49748  87558537.39648  21382685.88848  21382685.67948  21382685.38548
 112366784.98448       477.00048       272.00048       306.00048
 117898075.53048  91868638.32849  22435258.02348  22435257.79148  22435259.71149
 117898077.02848       321.00048       345.00048       865.00049
 122592329.62846  95526501.57647  23328545.88748  23328544.75946  23328547.44147
 122592335.11548       156.00048        27.00046        74.00047
 113178474.41748  88191027.63648  21537147.42349  21537147.33448  21537149.01048
 113178474.91249       516.00049       180.00048       283.00048
 23 06 21 06 29 10.0000000  0 10 01 02 10 14 15 21 23 24 27 32
 131608220.42146 102551879.63846  25044208.21747  25044208.21746  25044210.56846
 131608219.89847        92.00047        20.00046        25.00046
 121644180.32646  94787670.36347  23148116.90348  23148115.81346  23148114.10847
 121644185.83348       198.00048        34.00046        77.00047
 103124529.08149  80356784.34049  19623945.93549  19623945.48349  19623947.46949
 103124531.57649      1273.00049      5000.00049      3703.00049
 129314257.21846 100764358.84746  24607684.26847  24607683.82046  24607683.99246
 129314257.70247       100.00047        23.00046        37.00046
 130105354.44846 101380810.66347  24758220.45448  24758219.65446  24758219.33147
 130105355.94748       107.00048        39.00046        66.00047
 117612200.56647  91645873.24447  22380856.82048  22380856.05447  22380855.28747
 117612206.06748       237.00048        51.00047        73.00047
 112340780.49648  87538275.30448  21377737.80948  21377737.41848  21377737.18348
 112340781.98448       479.00048       270.00048       309.00048
 117977159.20348  91930261.96249  22450307.09748  22450306.93948  22450308.82349
 117977160.70048       317.00048       336.00048       851.00049
 122400585.80646  95377090.82247  23292058.35548  23292057.21246  23292059.49747
 122400591.31648       159.00048        28.00046        76.00047
 112870740.46348  87951234.93948  21478587.62149  21478587.56348  21478589.19548
 112870740.95449       528.00049       190.00048       293.00048
 23 06 21 06 29 20.0000000  0 10 01 02 10 14 15 21 23 24 27 32
 131843698.80946 102735369.27846  25089017.91947  25089017.55446  25089020.39446
 131843698.32747        90.00047        20.00046        24.00046
 121846475.85446  94945303.22247  23186612.76748  23186611.69146  23186609.58747
 121846481.36948       195.00048        35.00046        76.00047
 103093677.63149  80332744.23449  19618075.13649  19618074.65149  19618076.64949
 103093680.12649      1275.00049      5000.00049      3693.00049
 129708744.58246 101071751.60046  24682752.61147  24682752.21146  24682752.34146
 129708745.08147        95.00047        22.00046        32.00046
 130349177.54346 101570802.69947  24804618.06848  24804617.68146  24804617.32847
 130349179.06248       103.00048        36.00046        63.00047
 117786552.91947  91781732.19247  22414035.27848  22414033.99647  22414033.67047
 117786558.41848       232.00048        51.00047        71.00047
 112319264.90148  87521509.88848  21373643.32348  21373643.23848  21373642.92348
 112319266.38948       476.00048       272.00048       312.00048
 118061492.98548  91995976.58549  22466355.19948  22466355.12648  22466357.02149
 118061494.47948       314.00048       330.00048       840.00049
 122210218.72846  95228752.83547  23255832.48448  23255831.45246  23255833.91347
 122210224.24848       161.00048        29.00046        76.00047
 112567273.37848  87714767.08048  21420839.74249  21420839.65548  21420841.36948
 112567273.87249       543.00049       201.00048       301.00048
 23 06 21 06 29 30.0000000  0 10 01 02 10 14 15 21 23 24 27 32
 132080000.16046 102919500.16146  25133984.00547  25133983.91346  25133987.06446
 132079999.68247        87.00047        19.00046        25.00046
 122050460.66446  95104252.36047  23225429.93748  23225428.62446  23225426.63247
 122050466.13948       192.00048        32.00046        72.00047
 103068731.06049  80313305.33449  19613328.00049  19613327.49649  19613329.47949
 103068733.55449      1278.00049      5000.00049      3684.00049
 130103736.96146 101379537.85046  24757917.57347  24757916.75946  24757917.11946
 130103737.45147        91.00047        22.00046        31.00046
 130594976.90246 101762334.65447  24851392.49447  24851391.79446  24851391.39847
 130594978.39647       100.00047        35.00046        63.00047
 117963042.72146  91919256.68847  22447620.04548  22447619.10146  22447618.64447
 117963048.22248       228.00048        48.00046        69.00047
 112302233.51048  87508238.65548  21370402.49648  21370402.27348  21370401.99548
 112302234.99748       474.00048       270.00048       311.00048
 118151052.57048  92065763.26749  22483397.99348  22483397.68948  22483399.69349
 118151054.06548       310.00048       321.00048       831.00049
 122021253.24846  95081507.00247  23219873.51448  23219872.81746  23219875.05547
 122021258.76648       164.00048        27.00046        80.00047
 112268156.18348  87481688.74248  21363919.67349  21363919.61648  21363921.26248
 112268156.67649       558.00049       212.00048       311.00048
 23 06 21 06 29 40.0000000  0 10 01 02 10 14 15 21 23 24 27 32
 132317101.75246 103104254.61446  25179103.75947  25179103.03746  25179105.32746
 132317101.25347        86.00047        19.00046        22.00046
 122256111.11446  95264499.44447  23264563.71248  23264562.68446  23264560.56847
 122256116.59948       189.00048        32.00046        68.00047
 103049696.40849  80298473.12849  19609705.76249  19609705.32749  19609707.31349
 103049698.90449      1284.00049      5000.00049      3682.00049
 130499177.98246 101687673.68546  24833167.02147  24833166.56446  24833167.12546
 130499178.47047        87.00047        21.00046        29.00046
 130842697.58246 101955363.76347  24898531.92947  24898531.45246  24898531.04447
 130842699.09047        96.00047        33.00046        61.00047
 118141647.66246  92058429.35047  22481607.38748  22481606.32346  22481605.84047
 118141653.16948       224.00048        45.00046        69.00047
 112289682.13348  87498458.34148  21368014.08948  21368013.82648  21368013.56148
 112289683.62148       473.00048       269.00048       313.00048
 118245812.31448  92139602.01649  22501429.96448  22501429.91448  22501431.85649
 118245813.80948       304.00048       310.00048       821.00049
 121833714.38046  94935372.80147  23184186.03748  23184185.25546  23184187.45447
 121833719.87848       166.00048        29.00046        84.00047
 111973471.66948  87252064.44248  21307842.98949  21307842.95048  21307844.66948
 111973472.16149       572.00049       221.00048       326.00048
 23 06 21 06 29 50.0000000  0 10 01 02 10 14 15 21 23 24 27 32
 132554980.74046 103289614.82046  25224370.42947  25224369.85446  25224373.06546
 132554980.26247        83.00047        19.00046        22.00046
 122463403.52146  95426025.99747  23304010.23348  23304008.79046  23304006.97747
 122463409.03148       185.00048        32.00046        66.00047
 103036579.08649  80288251.82649  19607209.64049  19607209.19649  19607211.17249
 103036581.58249      1288.00049      5000.00049      3684.00049
 130895011.64146 101996115.46846  24908491.78947  24908490.58146  24908491.69846
 130895012.17447        82.00047        20.00046        27.00046
 131092284.77446 102149847.24247  24946026.24647  24946026.55546  24946025.98747
 131092286.25547        94.00047        31.00046        59.00047
 118322345.04846  92199232.49547  22515992.95148  22515991.99646  22515991.49547
 118322350.56048       219.00048        47.00046        64.00047
 112281605.40948  87492164.77148  21366477.04948  21366476.88848  21366476.64448
 112281606.89848       470.00048       263.00048       311.00048
 118345745.04648  92217471.66549  22520446.75148  22520446.45148  22520448.45549
 118345746.54148       298.00048       299.00048       806.00049
 121647627.02446  94790369.66547  23148774.81948  23148774.08646  23148776.23347
 121647632.52548       168.00048        29.00046        87.00047
 111683302.13448  87025958.30848  21252625.58149  21252625.60948  21252627.22048
 111683302.62849       584.00049       233.00048       334.00048
 23 06 21 06 30 00.0000000  0 10 01 02 10 14 15 21 23 24 27 32
 132793614.49246 103475563.13046  25269781.69847  25269780.81846  25269783.09246
 132793613.97447        80.00047        21.00046        22.00046
 122672314.11646  95588813.44447  23343764.52248  23343763.14446  23343761.35047
 122672319.61748       183.00048        30.00046        63.00047
 103029382.46849  80282644.05849  19605840.17049  19605839.73549  19605841.71049
 103029384.96249      1290.00049      5000.00049      3686.00049
 131291182.60046 102304820.03046  24983880.68547  24983879.88846  24983880.28746
 131291183.09247        78.00047        20.00046        25.00046
 131343683.39446 102345742.26747  24993866.35147  24993865.82746  24993865.47647
 131343684.89047        91.00047        31.00046        58.00047
 118505112.15246  92341648.38647  22550772.56248  22550771.27646  22550771.09747
 118505117.65348       216.00048        45.00046        63.00047
 112277996.80648  87489352.85448  21365790.36548  21365790.15748  21365789.92248
 112277998.29148       467.00048       258.00048       310.00048
 118450822.12448  92299349.89749  22540442.24148  22540442.00448  22540443.98749
 118450823.61848       295.00048       287.00048       789.00049
 121463016.13246  94646517.03247  23113644.57048  23113643.69246  23113645.83347
 121463021.64448       171.00048        31.00046        88.00047
 111397729.39548  86803434.09448  21198282.94349  21198282.87948  21198284.55948
 111397729.88949       600.00049       244.00048       350.00048
 23 06 21 06 30 10.0000000  0 10 01 02 10 14 15 21 23 24 27 32
 133032980.28846 103662081.91646  25315330.81947  25315330.04946  25315333.18646
 133032979.80247        80.00047        19.00046        21.00046
 122882819.02346  95752843.23047  23383822.18448  23383820.90746  23383819.22747
 122882824.53948       179.00048        30.00046        60.00047
 103028108.50249  80281651.35249  19605597.77449  19605597.30849  19605599.28749
 103028110.99749      1288.00049      5000.00049      3684.00049
 131687635.80346 102613744.54146  25059323.21147  25059322.79946  25059323.06846
 131687636.29347        73.00047        20.00046        23.00046
 131596838.62346 102543006.05547  25042039.66647  25042039.41946  25042039.28747
 131596840.12547        88.00047        29.00046        57.00047
 118689926.09746  92485659.24247  22585941.56848  22585940.07446  22585939.94547
 118689931.60448       212.00048        43.00046        64.00047
 112278848.77748  87490016.71848  21365952.61348  21365952.24648  21365952.06348
 112278850.26348       465.00048       259.00048       312.00048
 118561013.54348  92385213.33349  22561410.95448  22561410.73348  22561412.73449
 118561015.04148       289.00048       279.00048       768.00049
 121279906.77046  94503834.40447  23078799.94248  23078799.12746  23078801.49047
 121279912.27048       173.00048        30.00046        91.00047
 111116834.88248  86584555.24948  21144830.39949  21144830.42348  21144832.10748
 111116835.37649       614.00049       256.00048       362.00048
 23 06 21 06 30 20.0000000  0 10 01 02 10 14 15 21 23 24 27 32
 133273055.58546 103849153.48846  25361016.10647  25361015.42546  25361018.61046
 133273055.09747        76.00047        20.00046        22.00046
 123094894.25346  95918096.62047  23424179.05248  23424177.60946  23424175.77947
 123094899.75548       176.00048        30.00046        57.00047
 103032757.04249  80285273.58249  19606482.39349  19606481.90349  19606483.86849
 103032759.53749      1281.00049      5000.00049      3681.00049
 132084316.24646 102922846.07146  25134808.55047  25134808.79346  25134809.16846
 132084316.75347        70.00047        20.00046        24.00046
 131851695.45446 102741595.77147  25090537.43147  25090537.55346  25090537.40647
 131851696.94147        86.00047        28.00046        56.00047
 118876763.64846  92631246.90747  22621495.65148  22621494.33046  22621494.08547
 118876769.14048       208.00048        42.00046        61.00047
 112284152.52148  87494149.48848  21366961.69548  21366961.74348  21366961.40548
 112284154.00848       464.00048       256.00048       304.00048
 118676287.85848  92475037.46549  22583346.81848  22583346.70148  22583348.70849
 118676289.35448       286.00048       271.00048       738.00049
 121098323.82846  94362341.20847  23044245.71948  23044244.77746  23044247.37147
 121098329.33348       175.00048        30.00046        92.00047
 110840699.29148  86369384.65248  21092283.61649  21092283.56148  21092285.30748
 110840699.78449       632.00049       270.00048       378.00048
 23 06 21 06 30 30.0000000  0 10 01 02 10 14 15 21 23 24 27 32
 133513817.83146 104036760.36646  25406831.51447  25406830.18046  25406833.81146
 133513817.33947        77.00047        19.00046        22.00046
 123308515.83746  96084554.94547  23464829.57348  23464828.45446  23464826.59947
 123308521.32148       173.00048        29.00046        55.00047
 103043326.48949  80293509.50449  19608493.65749  19608493.20649  19608495.18149
 103043328.98349      1274.00049      5000.00049      3662.00049
 132481170.73746 103232083.28046  25210328.06747  25210328.66546  25210328.66546
 132481171.23447        67.00047        19.00046        23.00046
 132108198.84046 102941468.52747  25139348.86047  25139348.58246  25139348.36847
 132108200.34847        82.00047        30.00046        55.00047
 119065601.60746  92778393.35247  22657430.22348  22657429.01446  22657428.54347
 119065607.10848       205.00048        41.00046        57.00047
 112293898.31248  87501743.60048  21368816.44948  21368816.10648  21368815.98948
 112293899.79748       465.00048       259.00048       314.00048
 118796612.25748  92568796.72349  22606243.94748  22606243.66148  22606245.66449
 118796613.75348       282.00048       263.00048       713.00049
 120918292.37246  94222056.94847  23009986.95248  23009986.30846  23009988.47147
 120918297.87048       178.00048        30.00046        97.00047
 110569402.89348  86157984.85648  21040657.64249  21040657.58848  21040659.31948
 110569403.38649       646.00049       285.00048       395.00048
 23 06 21 06 30 40.0000000  0  9 02 10 14 15 21 23 24 27 32
 123523659.68246  96252199.46847  23505770.39648  23505768.86246  23505767.13247
 123523665.16848       170.00048        29.00046        51.00047
 103059813.04449  80306356.16049  19611630.95149  19611630.48949  19611632.47849
 103059815.53849      1266.00049      5000.00049      3638.00049
 132878145.39046 103541414.10546  25285869.52747  25285870.22046  25285869.64346
 132878145.87947        64.00047        20.00046        20.00046
 132366293.82146 103142581.46247  25188462.57047  25188461.56846  25188461.96547
 132366295.32447        80.00047        27.00046        55.00047
 119256416.59446  92927080.31647  22693740.98848  22693739.84646  22693739.76747
 119256422.08948       202.00048        40.00046        57.00047
 112308075.18948  87512790.50348  21371514.23048  21371513.93648  21371513.71048
 112308076.67548       464.00048       259.00048       315.00048
 118921952.61548  92666464.52549  22630095.39948  22630095.13948  22630097.13349
 118921954.11448       278.00048       259.00048       685.00049
 120739837.36546  94083001.09847  22976027.97048  22976027.32146  22976029.72147
 120739842.86148       181.00048        29.00046       100.00047
 110303025.20648  85950417.82348  20989967.65649  20989967.62348  20989969.30048
 110303025.69749       664.00049       298.00048       412.00048
 23 06 21 06 30 50.0000000  0  8 02 10 15 21 23 24 27 32
 123740301.71746  96421011.42246  23546996.04648  23546994.25546  23546992.71946
 123740307.22948       166.00048        28.00046        49.00046
 103082211.42549  80323809.43349  19615893.20149  19615892.76249  19615894.74649
 103082213.92049      1265.00049      5000.00049      3604.00049
 132625925.50146 103344891.83147  25237868.89047  25237868.28546  25237868.35147
 132625926.98947        78.00047        26.00046        53.00047
 119449185.02346  93077289.46947  22730423.83048  22730422.27646  22730422.10247
 119449190.53848       199.00048        40.00046        54.00047
 112326671.17648  87527280.87248  21375052.82848  21375052.62748  21375052.46748
 112326672.66648       465.00048       258.00048       315.00048
 119052273.42048  92768013.18549  22654894.59948  22654894.44048  22654896.34849
 119052274.91648       275.00048       253.00048       657.00049
 120562983.80646  93945193.13148  22942374.09648  22942373.23346  22942375.64548
 120562989.29848       184.00048        32.00046       103.00048
 110041645.09348  85746745.00748  20940228.63549  20940228.68748  20940230.34948
 110041645.58749       680.00049       312.00048       427.00048
 23 06 21 06 31 00.0000000  0  8 02 10 15 21 23 24 27 32
 123958417.81646  96590971.98546  23588501.93148  23588500.87746  23588498.97946
 123958423.31948       162.00048        26.00046        46.00046
 103110514.33649  80345863.64049  19621279.05049  19621278.63349  19621280.60949
 103110516.83249      1261.00049      5000.00049      3566.00049
 132887038.97046 103548356.85646  25287556.87847  25287557.02046  25287556.44446
 132887040.49147        76.00047        25.00046        48.00046
 119643883.25846  93229002.33547  22767473.63448  22767472.41146  22767472.08047
 119643888.74548       195.00048        37.00046        54.00047
 112349673.16948  87545204.48748  21379430.04848  21379429.77048  21379429.58148
 112349674.65448       464.00048       254.00048       315.00048
 119187537.86648  92873414.04049  22680634.64948  22680634.45448  22680636.31349
 119187539.36248       271.00048       245.00048       630.00049
 120387756.59146  93808652.47048  22909029.40648  22909028.88546  22909030.93748
 120387762.10448       187.00048        33.00046       109.00048
 109785340.61048  85547027.22548  20891455.49149  20891455.50448  20891457.20248
 109785341.10549       697.00049       328.00048       447.00048
 23 06 21 06 31 10.0000000  0  8 02 10 15 21 23 24 27 32
 124177983.78146  96762062.33046  23630284.11548  23630282.59646  23630281.19546
 124177989.28548       160.00048        26.00046        44.00046
 103144712.89449  80372511.85649  19627786.84549  19627786.41049  19627788.38549
 103144715.38949      1258.00049      5000.00049      3533.00049
 133149579.51546 103752933.87346  25337517.29547  25337516.40146  25337516.59246
 133149581.03547        72.00047        26.00046        48.00046
 119840487.31646  93382200.28446  22804886.12348  22804884.78446  22804884.56146
 119840492.81748       192.00048        37.00046        49.00046
 112377066.97748  87566550.29548  21384642.88448  21384642.67848  21384642.48848
 112377068.46248       463.00048       257.00048       313.00048
 119327707.86948  92982637.40749  22707308.07548  22707307.83248  22707309.81849
 119327709.36648       267.00048       239.00048       607.00049
 120214180.72446  93673398.52948  22875999.12448  22875998.23246  22876000.55348
 120214186.20648       192.00048        32.00046       112.00048
 109534189.03248  85351324.69448  20843662.97549  20843662.98848  20843664.68448
 109534189.52649       713.00049       344.00048       458.00048
 23 06 21 06 31 20.0000000  0  8 02 10 15 21 23 24 27 32
 124398975.30246  96934263.48546  23672337.43548  23672336.35546  23672334.20746
 124398980.82048       155.00048        27.00046        44.00046
 103184796.51849  80403745.84249  19635414.53249  19635414.07149  19635416.03949
 103184799.01349      1254.00049      5000.00049      3494.00049
 133413492.39246 103958580.20846  25387739.23247  25387737.06946  25387737.29246
 133413493.87947        72.00047        24.00046        49.00046
 120038973.32846  93536864.68946  22842656.73448  22842655.38946  22842655.16346
 120038978.82648       188.00048        34.00046        48.00046
 112408837.39648  87591306.44448  21390688.58948  21390688.36448  21390688.21448
 112408838.87948       462.00048       254.00048       315.00048
 119472744.09848  93095652.63149  22734907.47048  22734907.37348  22734909.27449
 119472745.59448       265.00048       233.00048       589.00049
 120042281.02446  93539450.72948  22843287.53648  22843286.75646  22843289.04048
 120042286.52448       194.00048        34.00046       114.00048
 109288266.79448  85159696.97848  20796865.54249  20796865.55048  20796867.22648
 109288267.28949       730.00049       360.00048       479.00048
 23 06 21 06 31 30.0000000  0  8 02 10 15 21 23 24 27 32
 124621368.08246  97107556.52346  23714657.22248  23714656.24246  23714654.15746
 124621373.59148       151.00048        25.00046        43.00046
 103230752.55249  80439555.72849  19644159.67049  19644159.21649  19644161.19349
 103230755.04649      1247.00049      5000.00049      3466.00049
 133678722.89546 104165253.28746  25438210.20747  25438208.70446  25438209.11146
 133678724.38747        70.00047        24.00046        45.00046
 120239317.20746  93692976.77346  22880780.95648  22880779.70846  22880779.49446
 120239322.69648       184.00048        34.00046        47.00046
 112444968.14948  87619460.27048  21397564.14648  21397563.86548  21397563.64548
 112444969.63548       462.00048       252.00048       312.00048
 119622606.01248  93212428.14249  22763425.45648  22763425.14648  22763427.08349
 119622607.51248       261.00048       227.00048       568.00049
 119872082.43946  93406828.46348  22810899.92848  22810899.26246  22810901.38348
 119872087.93748       199.00048        35.00046       117.00048
 109047649.41848  84972202.91948  20751077.64249  20751077.56648  20751079.26448
 109047649.91149       745.00049       375.00048       492.00048
 23 06 21 06 31 40.0000000  0  8 02 10 15 21 23 24 27 32
 124845137.88346  97281922.55146  23757239.27548  23757237.96646  23757236.35746
 124845143.36148       147.00048        25.00046        42.00046
 103282566.82949  80479930.48149  19654019.60049  19654019.15349  19654021.13449
 103282569.32449      1238.00049      5000.00049      3438.00049
 133945216.42346 104372910.52746  25488922.25647  25488921.48946  25488921.36446
 133945217.92747        69.00047        24.00046        45.00046
 120441494.58846  93850517.57246  22919254.26048  22919252.83346  22919252.54446
 120441500.08848       182.00048        33.00046        46.00046
 112485441.88048  87650998.22448  21405266.03948  21405265.79048  21405265.56648
 112485443.36548       461.00048       254.00048       310.00048
 119777251.85848  93332931.38449  22792853.50948  22792853.25448  22792855.20949
 119777253.35348       259.00048       220.00048       553.00049
 119703609.79146  93275551.08348  22778840.65448  22778839.71446  22778842.04748
 119703615.28548       204.00048        36.00046       122.00048
 108812411.41948  84788900.58249  20706313.28649  20706313.29548  20706314.97549
 108812411.91149       761.00049       388.00048       504.00049
 23 06 21 06 31 50.0000000  0  8 02 10 15 21 23 24 27 32
 125070260.36246  97457342.65946  23800078.53648  23800077.36446  23800075.61046
 125070265.86348       145.00048        25.00046        38.00046
 103340223.33249  80524857.61649  19664991.25649  19664990.83349  19664992.81349
 103340225.82749      1230.00049      5000.00049      3419.00049
 134212919.23546 104581510.16846  25539863.91847  25539863.42746  25539863.28146
 134212920.73347        69.00047        23.00046        43.00046
 120645481.20646  94009468.16946  22958071.50548  22958069.72946  22958069.65446
 120645486.71148       180.00048        35.00046        42.00046
 112530240.26648  87685906.04948  21413790.80148  21413790.57748  21413790.42648
 112530241.75648       461.00048       252.00048       309.00048
 119936638.69248  93457128.90249  22823183.91448  22823183.55048  22823185.56949
 119936640.18748       255.00048       217.00048       542.00049
 119536887.91146  93145637.93148  22747114.52348  22747113.87946  22747115.92448
 119536893.39148       209.00048        39.00046       126.00048
 108582626.34848  84609847.28849  20662586.63949  20662586.62748  20662588.32049
 108582626.84449       774.00049       405.00048       521.00049
 23 06 21 06 32 00.0000000  0  8 02 10 15 21 23 24 27 32
 125296711.25046  97633797.86746  23843170.81848  23843169.61046  23843167.56446
 125296716.72548       142.00048        25.00046        37.00046
 103403704.56449  80574323.50949  19677071.37849  19677070.91249  19677072.89249
 103403707.05949      1221.00049      5000.00049      3393.00049
 134481775.89246 104791008.83046  25591025.49747  25591024.91646  25591024.95946
 134481777.40747        67.00047        23.00046        41.00046
 120851252.59346  94169809.49246  22997228.37848  22997227.25546  22997226.77646
 120851258.09448       176.00048        33.00046        40.00046
 112579343.87448  87724168.58548  21423135.01748  21423134.80848  21423134.53648
 112579345.36148       459.00048       252.00048       310.00048
 120100722.43048  93584986.34849  22854407.90748  22854407.67948  22854409.66649
 120100723.92748       252.00048       209.00048       525.00049
 119371941.44946  93017108.25748  22715726.05948  22715725.63446  22715727.64348
 119371946.95448       214.00048        38.00046       131.00048
 108358366.62548  84435099.46349  20619911.39549  20619911.41948  20619913.08349
 108358367.11849       787.00049       417.00048       534.00049
 23 06 21 06 32 10.0000000  0  8 02 10 15 21 23 24 27 32
 125524466.03646  97811269.13346  23886511.18848  23886509.92446  23886508.39346
 125524471.54948       138.00048        24.00046        37.00046
 103472990.99549  80628312.93049  19690256.13649  19690255.67849  19690257.67549
 103472993.49049      1215.00049      5000.00049      3366.00049
 134751732.79846 105001364.77646  25642397.02747  25642396.28246  25642396.23346
 134751734.29447        68.00047        22.00046        39.00046
 121058784.29146  94331522.48546  23036720.50748  23036719.44246  23036719.18546
 121058789.78148       174.00048        31.00046        38.00046
 112632732.31748  87765769.96448  21433294.44648  21433294.22248  21433294.00648
 112632733.80748       459.00048       247.00048       311.00048
 120269457.85748  93716468.48349  22886517.21848  22886516.91448  22886518.96349
 120269459.35548       249.00048       205.00048       516.00049
 119208795.19146  92889981.31648  22684680.49248  22684679.95346  22684681.99548
 119208800.68748       218.00048        42.00046       134.00048
 108139703.54948  84264712.65749  20578301.20549  20578301.17948  20578302.88849
 108139704.04349       802.00049       431.00048       550.00049
 23 06 21 06 32 20.0000000  0  8 02 10 15 21 23 24 27 32
 125753500.34046  97989737.39846  23930094.67648  23930093.30546  23930092.06446
 125753505.84748       134.00048        24.00046        36.00046
 103548061.58649  80686809.49049  19704541.58549  19704541.14049  19704543.13549
 103548064.08149      1209.00049      4997.00049      3335.00049
 135022735.81046 105212535.88946  25693967.36347  25693966.47846  25693966.42646
 135022737.29747        66.00047        23.00046        38.00046
 121268051.53846  94494587.85946  23076542.66548  23076541.65446  23076541.18946
 121268057.03548       170.00048        30.00046        36.00046
 112690384.16148  87810693.45648  21444265.18748  21444265.02848  21444264.86148
 112690385.64848       456.00048       249.00048       311.00048
 120442798.73948  93851539.29049  22919502.85948  22919502.62148  22919504.62549
 120442800.23648       244.00048       196.00048       505.00049
 119047473.69346  92764276.27348  22653982.03448  22653981.43846  22653983.41348
 119047479.19348       222.00048        40.00046       139.00048
 107926707.24248  84098741.51449  20537769.34649  20537769.39448  20537771.02849
 107926707.73649       817.00049       447.00048       567.00049
 23 06 21 06 32 30.0000000  0  8 02 10 15 21 23 24 27 32
 125983789.76146  98169183.65346  23973917.89548  23973916.19646  23973914.59946
 125983795.24348       131.00048        24.00046        34.00046
 103628893.56849  80749795.44649  19719923.37449  19719922.96049  19719924.93949
 103628896.06349      1202.00049      4957.00049      3304.00049
 135294730.99846 105424480.14946  25745725.64247  25745725.20746  25745725.41046
 135294732.51047        65.00047        22.00046        35.00046
 121479029.48846  94658986.22746  23116690.37048  23116689.28946  23116688.61246
 121479034.96648       167.00048        32.00046        37.00046
 112752277.02948  87858921.65148  21456043.09248  21456042.78448  21456042.62748
 112752278.51548       455.00048       243.00048       312.00048
 120620697.71448  93990161.85648  22953355.94948  22953355.74348  22953357.70248
 120620699.21048       241.00048       193.00048       491.00048
 118888001.54546  92640012.25848  22623635.47448  22623635.14746  22623636.92248
 118888007.02248       226.00048        42.00046       142.00048
 107719446.59648  83937239.72349  20498328.92049  20498328.95848  20498330.62249
 107719447.09049       833.00049       467.00048       588.00049
 23 06 21 06 32 40.0000000  0  9 02 10 15 18 21 23 24 27 32
 126215309.90646  98349588.95946  24017974.67548  24017972.61046  24017971.46546
 126215315.40148       127.00048        22.00046        34.00046
 103715462.59149  80817251.82149  19736396.94849  19736396.50049  19736398.48649
 103715465.08549      1192.00049      4888.00049      3259.00049
 135567664.83646 105637155.81946  25797664.10747  25797663.47746  25797663.11046
 135567666.35147        64.00047        24.00046        34.00046
 125277710.60056  97618995.45557  23839556.12648  23839555.68546  23839555.94547
 125277712.08458       153.00048        36.00046        76.00047
 121691693.35446  94824698.35446  23157159.06048  23157157.76246  23157157.49646
 121691698.87648       164.00048        30.00046        34.00046
 112818387.62648  87910436.39448  21468623.56448  21468623.27848  21468623.12148
 112818389.11248       452.00048       241.00048       313.00048
 120803106.45448  94132298.52248  22988067.25748  22988066.95248  22988068.88748
 120803107.95048       238.00048       187.00048       479.00048
 118730403.22246  92517208.40748  22593645.48748  22593645.04646  22593646.92848
 118730408.72348       231.00048        44.00046       145.00048
 107517989.24448  83780259.97849  20459992.92649  20459992.90748  20459994.56649
 107517989.73749       851.00049       484.00048       604.00049
 23 06 21 06 32 50.0000000  0  9 02 10 15 18 21 23 24 27 32
 126448036.36046  98530934.26946  24062260.83148  24062259.26546  24062257.83246
 126448041.87448       125.00048        22.00046        33.00046
 103807742.67849  80889158.38149  19753957.25449  19753956.82149  19753958.79649
 103807745.17349      1186.00049      4821.00049      3200.00049
 135841483.67546 105850521.05546  25849769.88447  25849769.52446  25849769.24146
 135841485.16747        64.00047        22.00046        33.00046
 125014292.70746  97413734.75747  23789429.21648  23789428.44946  23789428.95647
 125014294.16848       157.00048        35.00046        79.00047
 121906018.27846  94991704.79246  23197943.68548  23197942.63046  23197942.19246
 121906023.78448       160.00048        29.00046        32.00046
 112888691.55448  87965218.68248  21482001.90948  21482001.57948  21482001.49848
 112888693.04248       449.00048       237.00048       314.00048
 120989975.51748  94277910.76948  23023627.36848  23023626.89248  23023628.89648
 120989977.01148       232.00048       177.00048       468.00048
 118574703.09646  92395883.65748  22564016.74648  22564015.96346  22564018.16648
 118574708.60148       235.00048        45.00046       153.00048
 107322401.32549  83627853.81749  20422773.75549  20422773.73449  20422775.42049
 107322401.81949       866.00049       503.00049       624.00049
 23 06 21 06 33 00.0000000  0  9 02 10 15 18 21 23 24 27 32
 126681944.75946  98713200.54446  24106771.95948  24106769.86346  24106769.37146
 126681950.24648       121.00048        22.00046        35.00046
 103905706.19149  80965493.58549  19772599.10949  19772598.65149  19772600.64249
 103905708.68649      1178.00049      4742.00049      3134.00049
 136116134.20446 106064534.40146  25902034.13747  25902034.11046  25902033.58646
 136116135.68847        62.00047        22.00046        31.00046
 124752593.67946  97209813.49247  23739629.43748  23739628.97446  23739629.40847
 124752595.18948       162.00048        38.00046        83.00047
 122121979.21546  95159986.04646  23239039.80848  23239038.59546  23239038.16746
 122121984.72448       156.00048        29.00046        31.00046
 112963163.55548  88023248.81248  21496173.51248  21496173.16648  21496173.08348
 112963165.04148       446.00048       234.00048       312.00048
 121181254.60248  94426959.39748  23060026.46048  23060026.17448  23060028.09948
 121181256.09848       228.00048       171.00048       452.00048
 118420925.51246  92276056.99548  22534753.80648  22534752.86046  22534755.29148
 118420931.02048       238.00048        46.00046       156.00048
 107132747.71649  83480071.79349  20386683.84349  20386683.87049  20386685.51849
 107132748.20949       880.00049       518.00049       638.00049
 23 06 21 06 33 10.0000000  0  8 02 10 18 21 23 24 27 32
 126917010.51046  98896368.69046  24151503.60648  24151501.54646  24151500.96846
 126917016.02448       119.00048        22.00046        32.00046
 104009323.95249  81046234.69749  19792316.91349  19792316.47149  19792318.43449
 104009326.44649      1168.00049      4678.00049      3060.00049
 124492646.86446  97007257.53347  23690163.42548  23690162.89646  23690163.08947
 124492648.35748       165.00048        38.00046        87.00047
 122339551.05846  95329522.54446  23280442.21648  23280440.59146  23280440.15346
 122339556.55048       153.00048        28.00046        29.00046
 113041777.41848  88084506.36148  21511133.13848  21511132.90748  21511132.77348
 113041778.90548       441.00048       233.00048       312.00048
 121376892.43048  94579404.44848  23097255.02448  23097254.84348  23097256.76648
 121376893.92948       223.00048       164.00048       444.00048
 118269094.67346  92157747.27248  22505861.20348  22505860.63346  22505862.86548
 118269100.17948       242.00048        47.00046       162.00048
 106949091.76149  83336963.26549  20351735.26249  20351735.27349  20351736.94649
 106949092.25449       891.00049       533.00049       657.00049
 23 06 21 06 33 20.0000000  0  8 02 10 18 21 23 24 27 32
 127153209.34246  99080419.68546  24196450.59248  24196448.67246  24196448.20146
 127153214.80548       115.00048        22.00046        33.00046
 104118565.14549  81131357.70149  19813104.79349  19813104.36549  19813106.33449
 104118567.64049      1160.00049      4607.00049      2978.00049
 124234485.35846  96806092.74247  23641036.80548  23641036.41846  23641036.55047
 124234486.85448       169.00048        43.00046        88.00047
 122558708.60846  95500294.67746  23322146.47048  23322145.30846  23322145.08946
 122558714.10248       149.00048        26.00046        31.00046
 113124506.07048  88148970.23648  21526875.89648  21526875.67848  21526875.51648
 113124507.55748       439.00048       229.00048       309.00048
 121576836.85248  94735205.29048  23135303.27548  23135302.99348  23135304.93148
 121576838.34648       218.00048       156.00048       433.00048
 118119234.67446  92040973.26648  22477343.69848  22477343.24846  22477345.35848
 118119240.18448       247.00048        49.00046       164.00048
 106771495.32049  83198576.43349  20317939.79449  20317939.79949  20317941.47549
 106771495.81449       903.00049       547.00049       664.00049
 23 06 21 06 33 30.0000000  0  8 02 10 18 21 23 24 27 32
 127390516.60746  99265334.47346  24241608.81148  24241607.16146  24241605.67346
 127390522.11048       112.00048        21.00046        31.00046
 104233397.41849  81220837.39449  19834956.68549  19834956.23049  19834958.17649
 104233399.91349      1151.00049      4525.00049      2901.00049
 123978142.30446  96606344.90547  23592256.25848  23592256.11246  23592256.20647
 123978143.78448       173.00048        42.00046        92.00047
 122779426.58946  95672282.70446  23364147.77348  23364146.01646  23364146.56946
 122779432.09848       146.00048        25.00046        30.00046
 113211321.48248  88216618.60348  21543396.30648  21543396.11848  21543395.92148
 113211322.96948       435.00048       223.00048       307.00048
 121781034.73848  94894320.51848  23174160.71048  23174160.52748  23174162.53248
 121781036.23248       214.00048       152.00048       427.00048
 117971369.54746  91925753.69048  22449206.13648  22449205.38446  22449207.58448
 117971375.04248       251.00048        50.00046       171.00048
 106600018.65849  83064958.26249  20285308.85549  20285308.87749  20285310.52149
 106600019.15349       916.00049       562.00049       673.00049
 23 06 21 06 33 40.0000000  0  8 02 10 18 21 23 24 27 32
 127628908.12546  99451094.07746  24286973.09448  24286971.63646  24286970.20546
 127628913.60248       110.00048        20.00046        30.00046
 104353786.94049  81314647.40549  19857866.05949  19857865.60549  19857867.54049
 104353789.43449      1142.00049      4441.00049      2828.00049
 123723650.76946  96408039.82147  23543828.34948  23543827.94146  23543827.89547
 123723652.24648       175.00048        44.00046        96.00047
 123001679.90946  95845467.09746  23406441.23048  23406439.34746  23406439.52146
 123001685.39748       142.00048        26.00046        29.00046
 113302194.80148  88287428.98248  21560688.97848  21560688.64848  21560688.56048
 113302196.28948       432.00048       220.00048       303.00048
 121989432.20048  95056708.14248  23213817.54748  23213817.22348  23213819.25248
 121989433.69448       210.00048       145.00048       417.00048
 117825523.13347  91812107.15548  22421452.36348  22421452.04647  22421453.85848
 117825528.63848       255.00048        52.00047       175.00048
 106434720.42949  82936154.44849  20253853.64949  20253853.66249  20253855.31649
 106434720.92349       930.00049       579.00049       679.00049
 23 06 21 06 33 50.0000000  0  8 02 10 18 21 23 24 27 32
 127868359.39046  99637679.52046  24332539.20548  24332538.34246  24332536.10146
 127868364.88848       107.00048        21.00046        31.00046
 104479698.61149  81412760.38849  19881826.27149  19881825.80849  19881827.72749
 104479701.10649      1130.00049      4357.00049      2759.00049
 123471043.79046  96211203.23847  23495758.51248  23495758.39646  23495758.59147
 123471045.28848       180.00048        44.00046       100.00047
 123225443.09946  96019828.04746  23449022.07248  23449020.67246  23449020.09546
 123225448.61848       138.00048        25.00046        28.00046
 113397096.28748  88361378.19048  21578748.10648  21578747.87248  21578747.72348
 113397097.77448       427.00048       214.00048       300.00048
 122201974.56548  95222325.56448  23254263.11348  23254262.72248  23254264.73448
 122201976.06148       207.00048       142.00048       410.00048
 117681719.29047  91700052.21448  22394087.41148  22394087.02647  22394088.88748
 117681724.78548       259.00048        55.00047       181.00048
 106275657.65549  82812209.43149  20223585.02449  20223585.03749  20223586.68849
 106275658.14949       943.00049       597.00049       689.00049
 23 06 21 06 34 00.0000000  0  9 02 10 15 18 21 23 24 27 32
 128108846.01446  99825071.66846  24378302.16248  24378301.28046  24378299.83846
 128108851.51148       105.00048        20.00046        29.00046
 104611095.53749  81515147.59849  19906830.28849  19906829.81749  19906831.74449
 104611098.03249      1119.00049      4270.00049      2702.00049
 137778512.97856 107359879.24056  26218379.84047  26218379.44146  26218379.15146
 137778515.45657        58.00047        21.00046        23.00046
 123220354.28846  96015860.77848  23448054.09248  23448053.68946  23448053.82648
 123220355.78648       182.00048        45.00046       104.00048
 123450690.68346  96195345.64346  23491884.98548  23491884.18246  23491883.77946
 123450696.18148       134.00048        25.00046        26.00046
 113495995.30848  88438442.35448  21597567.93348  21597567.79748  21597567.57648
 113495996.79648       424.00048       212.00048       294.00048
 122418606.28248  95391129.50348  23295486.70248  23295486.38248  23295488.40248
 122418607.78148       201.00048       136.00048       401.00048
 117539981.58047  91589607.26048  22367115.85648  22367115.32447  22367117.11648
 117539987.08448       264.00048        56.00047       184.00048
 106122885.54449  82693166.22749  20194513.44549  20194513.43949  20194515.09449
 106122886.03849       954.00049       610.00049       702.00049
 23 06 21 06 34 10.0000000  0  9 02 10 15 18 21 23 24 27 32
 128350343.69446 100013251.67446  24424257.87848  24424256.06746  24424255.00446
 128350349.20848       102.00048        21.00046        27.00046
 104747939.69049  81621779.39749  19932870.84549  19932870.39449  19932872.32849
 104747942.18549      1108.00049      4191.00049      2646.00049
 138057508.37346 107577278.17846  26271470.54847  26271470.40946  26271470.38546
 138057510.87047        58.00047        21.00046        22.00046
 122971615.16146  95822038.07248  23400720.56348  23400720.44946  23400720.44248
 122971616.63748       184.00048        45.00046       106.00048
 123677397.15846  96372000.01146  23535025.79948  23535024.70446  23535024.09846
 123677402.64548       130.00048        25.00046        26.00046
 113598860.45348  88518597.00048  21617142.56148  21617142.30048  21617142.14248
 113598861.94048       419.00048       208.00048       291.00048
 122639271.05248  95563076.06348  23337477.77648  23337477.59648  23337479.51748
 122639272.54948       199.00048       131.00048       393.00048
 117400333.55547  91480790.60548  22340541.53048  22340540.98347  22340543.02548
 117400339.03848       268.00048        58.00047       190.00048
 105976457.56149  82579066.49549  20166649.08849  20166649.12849  20166650.78049
 105976458.05549       965.00049       621.00049       712.00049
 23 06 21 06 34 20.0000000  0  9 02 10 15 18 21 23 24 27 32
 128592828.07346 100202200.52646  24470400.99847  24470398.34546  24470398.09746
 128592833.56647       100.00047        21.00046        28.00046
 104890191.56049  81732625.00349  19959940.44949  19959940.03049  19959941.95949
 104890194.05549      1101.00049      4128.00049      2601.00049
 138336916.37346 107794998.59946  26324640.14047  26324639.84946  26324640.09746
 138336918.84947        55.00047        21.00046        21.00046
 122724859.15046  95629760.68648  23353764.65848  23353764.19346  23353764.21548
 122724860.64548       188.00048        48.00046       107.00048
 123905537.16746  96549771.44346  23578439.47248  23578438.76646  23578437.85846
 123905542.66048       126.00048        23.00046        27.00046
 113705659.54848  88601817.06548  21637465.68248  21637465.47548  21637465.30948
 113705661.03948       414.00048       203.00048       286.00048
 122863911.93648  95738120.89348  23380225.48548  23380225.30448  23380227.29048
 122863913.42648       197.00048       129.00048       381.00048
 117262798.55947  91373620.50048  22314369.48448  22314369.22147  22314370.99148
 117262804.06348       272.00048        60.00047       198.00048
 105836425.38349  82469950.50849  20140001.89549  20140001.90849  20140003.58049
 105836425.87649       974.00049       635.00049       730.00049
 23 06 21 06 34 30.0000000  0  8 02 10 18 21 23 24 27 32
 128836274.83146 100391899.29046  24516727.45247  24516725.40046  24516724.79846
 128836280.33747        96.00047        21.00046        26.00046
 105037810.18749  81847652.49749  19988031.38949  19988030.93349  19988032.85149
 105037812.68149      1093.00049      4061.00049      2559.00049
 122480118.94246  95439054.03848  23307192.00748  23307191.62946  23307191.78548
 122480120.44048       190.00048        48.00046       110.00048
 124135085.10246  96728639.91046  23622121.15348  23622120.05746  23622119.18346
 124135090.56748       122.00048        24.00046        26.00046
 113816359.51148  88688076.75248  21658531.25248  21658531.03148  21658530.85648
 113816360.99848       410.00048       198.00048       281.00048
 123092471.19848  95916219.01248  23423718.85748  23423718.64048  23423720.71948
 123092472.69648       192.00048       121.00048       366.00048
 117127399.83647  91268114.99348  22288603.86748  22288603.35447  22288605.38248
 117127405.32448       276.00048        61.00047       201.00048
 105702838.74749  82365857.02749  20114581.20449  20114581.20549  20114582.89249
 105702839.24249       984.00049       646.00049       752.00049
 23 06 21 06 34 40.0000000  0  8 02 10 18 21 23 24 27 32
 129080659.62546 100582328.96446  24563232.44947  24563230.44246  24563229.52146
 129080665.12847        94.00047        20.00046        28.00046
 105190753.30849  81966828.94849  20017135.50249  20017135.05649  20017136.94949
 105190755.80249      1087.00049      4005.00049      2512.00049
 122237427.14147  95249943.55048  23261009.30048  23261009.16147  23261009.06248
 122237428.63648       193.00048        51.00047       114.00048
 124366015.26146  96908585.51046  23666065.48848  23666064.13846  23666064.08646
 124366020.75548       118.00048        22.00046        25.00046
 113930926.58548  88777349.78248  21680332.68048  21680332.44548  21680332.25248
 113930928.07648       404.00048       195.00048       277.00048
 123324890.49648  96097324.94948  23467946.80448  23467946.58648  23467948.60348
 123324891.99448       190.00048       121.00048       357.00048
 116994160.38547  91164292.05648  22263249.21748  22263248.68147  22263250.79148
 116994165.88448       279.00048        62.00047       206.00048
 105575745.51149  82266823.33849  20090396.15649  20090396.17149  20090397.83749
 105575746.00549       997.00049       663.00049       770.00049
 23 06 21 06 34 50.0000000  0  8 02 10 18 21 23 24 27 32
 129325958.17646 100773470.68946  24609910.81547  24609909.12446  24609908.47746
 129325963.69247        92.00047        21.00046        27.00046
 105348977.46349  82090120.48749  20047244.60949  20047244.11949  20047246.01549
 105348979.95749      1078.00049      3946.00049      2457.00049
 121996816.24647  95062454.53048  23215222.59348  23215222.32647  23215222.25048
 121996817.71448       196.00048        51.00047       114.00048
 124598302.16546  97089588.27646  23710268.07748  23710266.83746  23710266.77646
 124598307.67048       115.00048        22.00046        25.00046
 114049326.24248  88869609.24548  21702863.35748  21702863.13048  21702862.98148
 114049327.73348       399.00048       187.00048       273.00048
 123561110.88048  96281392.76948  23512897.97548  23512897.75048  23512899.92648
 123561112.37348       188.00048       115.00048       346.00048
 116863103.14847  91062169.53448  22238310.04048  22238309.43347  22238311.47148
 116863108.64348       281.00048        62.00047       208.00048
 105455191.53249  82172885.17049  20067455.50049  20067455.52149  20067457.20149
 105455192.02549      1013.00049       685.00049       788.00049
 23 06 21 06 35 00.0000000  0  8 02 10 18 21 23 24 27 32
 129572146.31346 100965305.53746  24656759.20147  24656757.66646  24656755.91746
 129572151.79347        91.00047        19.00046        26.00046
 105512437.94149  82217492.27649  20078350.09849  20078349.63749  20078351.52349
 105512440.43549      1067.00049      3862.00049      2397.00049
 121758318.56547  94876612.19548  23169837.83248  23169837.63347  23169837.70448
 121758320.04648       200.00048        54.00047       116.00048
 124831920.08846  97271628.20146  23754724.66648  23754722.88746  23754722.85846
 124831925.59648       111.00048        22.00046        25.00046
 114171523.20448  88964827.64548  21726116.60348  21726116.41848  21726116.32748
 114171524.69348       395.00048       184.00048       267.00048
 123801072.73848  96468376.03648  23558561.29948  23558561.05248  23558563.09348
 123801074.23448       184.00048       112.00048       331.00048
 116734250.82047  90961765.13048  22213790.38948  22213789.73247  22213791.64748
 116734256.32148       284.00048        62.00047       216.00048
 105341220.68749  82084076.71549  20045767.56549  20045767.63349  20045769.25849
 105341221.18149      1026.00049       701.00049       809.00049
 23 06 21 06 35 10.0000000  0  8 02 10 18 21 23 24 27 32
 129819199.69346 101157814.65146  24703772.19347  24703771.24046  24703769.30846
 129819205.20647        87.00047        19.00046        26.00046
 105681088.79049  82348908.51249  20110443.26349  20110442.82949  20110444.71949
 105681091.28449      1053.00049      3763.00049      2336.00049
 121521966.35547  94692441.64648  23124861.54548  23124861.14547  23124861.33248
 121521967.83848       205.00048        55.00047       120.00048
 125066843.56946  97454685.44146  23799429.08548  23799427.83246  23799427.69746
 125066849.07448       108.00048        22.00046        24.00046
 114297481.47048  89062976.93548  21750085.77648  21750085.47248  21750085.34048
 114297482.95748       391.00048       181.00048       262.00048
 124044715.88648  96658227.83348  23604925.19748  23604924.91048  23604926.81748
 124044717.38748       181.00048       110.00048       314.00048
 116607625.97947  90863096.42448  22189694.15148  22189693.66747  22189695.75548
 116607631.47348       286.00048        65.00047       220.00048
 105233874.75949  82000430.52949  20025340.32049  20025340.35049  20025342.02649
 105233875.25349      1038.00049       720.00049       830.00049
 23 06 21 06 35 20.0000000  0  8 02 10 18 21 23 24 27 32
 130067094.33146 101350979.27346  24750944.84047  24750944.49746  24750941.65646
 130067099.82947        86.00047        19.00046        25.00046
 105854882.70549  82484332.33149  20143515.19549  20143514.71649  20143516.60449
 105854885.19949      1039.00049      3650.00049      2269.00049
 121287791.69547  94509967.89948  23080299.77848  23080299.37347  23080299.37348
 121287793.19048       212.00048        59.00047       120.00048
 125303046.66646  97638739.79846  23844377.15848  23844375.77046  23844375.37146
 125303052.17948       105.00048        21.00046        24.00046
 114427164.34448  89164028.51948  21774763.60848  21774763.35848  21774763.23348
 114427165.83548       388.00048       177.00048       259.00048
 124291979.59348  96850900.83448  23651977.99448  23651977.60248  23651979.58648
 124291981.09248       178.00048       106.00048       304.00048
 116483250.93547  90766180.80848  22166026.38048  22166025.75947  22166027.93448
 116483256.43648       289.00048        65.00047       222.00048
 105133193.44549  81921977.55149  20006181.28849  20006181.34249  20006183.00749
 105133193.93849      1048.00049       734.00049       848.00049
 23 06 21 06 35 30.0000000  0  8 02 10 18 21 23 24 27 32
 130315805.97246 101544780.54946  24798273.13747  24798271.82546  24798269.86846
 130315811.50347        84.00047        20.00046        26.00046
 106033771.59549  82623726.26249  20177556.58749  20177556.14349  20177558.05349
 106033774.08949      1022.00049      3530.00049      2203.00049
 121055826.55247  94329215.83548  23036158.23948  23036157.71747  23036157.93048
 121055828.03348       219.00048        62.00047       126.00048
 125540504.02946  97823771.45546  23889563.45848  23889562.29346  23889561.71946
 125540509.50748       103.00048        22.00046        24.00046
 114560534.47148  89267953.29048  21800143.13048  21800142.82148  21800142.74348
 114560535.96348       387.00048       176.00048       251.00048
 124542802.67548  97046347.37748  23699707.87348  23699707.72748  23699709.65648
 124542804.16748       176.00048       102.00048       294.00048
 116361147.86147  90671035.55548  22142790.91748  22142790.56947  22142792.50148
 116361153.35848       292.00048        67.00047       223.00048
 105039214.27349  81848747.02449  19988297.68949  19988297.71649  19988299.38849
 105039214.76549      1056.00049       745.00049       864.00049
 23 06 21 06 35 40.0000000  0  8 02 10 18 21 23 24 27 32
 130565310.63746 101739199.72346  24845752.00247  24845750.10246  24845749.01946
 130565316.13147        82.00047        20.00046        24.00046
 106217705.92649  82767051.70449  20212558.13749  20212557.68649  20212559.58949
 106217708.42049      1003.00049      3399.00049      2138.00049
 120826102.68547  94150210.22448  22992443.17448  22992442.80547  22992442.93548
 120826104.16048       226.00048        65.00047       127.00048
 125779189.70446  98009760.27146  23934984.04148  23934982.83446  23934982.16046
 125779195.19148       101.00048        21.00046        23.00046
 114697553.80548  89374721.58948  21826216.98548  21826216.79348  21826216.59348
 114697555.29848       385.00048       174.00048       246.00048
 124797123.36747  97244519.34448  23748103.84548  23748103.20747  23748105.24748
 124797124.86348       173.00048       100.00047       281.00048
 116241338.69047  90577677.75948  22119992.09848  22119991.54647  22119993.58648
 116241344.18748       295.00048        68.00047       228.00048
 104951972.63649  81780766.52649  19971696.16049  19971696.19349  19971697.86149
 104951973.13049      1065.00049       757.00049       882.00049
 23 06 21 06 35 50.0000000  0  8 02 10 18 21 23 24 27 32
 130815584.23746 101934218.08746  24893377.37647  24893376.23446  24893374.91446
 130815589.72147        81.00047        20.00046        23.00046
 106406635.15449  82914269.27449  20248510.18649  20248509.72849  20248511.62049
 106406637.64949       986.00049      3279.00049      2086.00049
 120598651.76147  93972975.73848  22949160.85048  22949160.34247  22949160.42548
 120598653.23748       234.00048        70.00047       127.00048
 126019078.00646  98196686.21746  23980633.11547  23980631.90946  23980631.86246
 126019083.51347        98.00047        20.00046        25.00046
 114838183.74748  89484303.35448  21852977.95948  21852977.68848  21852977.62348
 114838185.24048       382.00048       171.00048       239.00048
 125054879.50747  97445368.27548  23797152.82848  23797152.57447  23797154.60048
 125054881.00648       169.00048        96.00047       275.00048
 116123845.23547  90486124.42148  22097633.84048  22097633.35747  22097635.31048
 116123850.73048       299.00048        69.00047       229.00048
 104871501.69949  81718061.89549  19956383.01149  19956383.09449  19956384.74949
 104871502.19349      1075.00049       774.00049       895.00049
 23 06 21 06 36 00.0000000  0  8 02 10 18 21 23 24 27 32
 131066602.67146 102129816.86146  24941145.06347  24941143.76646  24941142.13746
 131066608.18147        79.00047        21.00046        22.00046
 106600507.74549  83065338.81349  20285402.92149  20285402.46749  20285404.37249
 106600510.23949       969.00049      3168.00049      2043.00049
 120373505.24847  93797536.90248  22906316.76648  22906316.29947  22906316.47948
 120373506.73048       240.00048        74.00047       129.00048
 126260143.25446  98384529.25746  24026506.32947  24026505.28146  24026504.45346
 126260148.76447        95.00047        21.00046        21.00046
 114982385.01348  89596667.97148  21880418.56948  21880418.34648  21880418.16248
 114982386.50748       380.00048       168.00048       232.00048
 125316008.49047  97648845.38848  23846843.90848  23846843.96447  23846845.81848
 125316009.98248       167.00048        90.00047       268.00048
 116008689.01347  90396392.29648  22075720.21048  22075719.71547  22075721.79348
 116008694.49748       302.00048        71.00047       232.00048
 104797832.38549  81660657.23349  19942364.20049  19942364.28949  19942365.95049
 104797832.87949      1088.00049       789.00049       904.00049
